[{"name":"Abu al Bukhoosh","code":"AEABU","country":"AE","lat":25.483333,"lon":53.133333},{"name":"Abu Dhabi","code":"AEAUH","country":"AE","lat":24.466667,"lon":54.366667},{"name":"Abu Musa","code":"AEAMU","country":"AE","lat":25.866667,"lon":55.016667},{"name":"Ahmed Bin Rashid Port","code":"AEARP","country":"AE","lat":25.533333,"lon":55.55},{"name":"Al Fujayrah","code":"AEFJR","country":"AE","lat":25.116667,"lon":56.333333},{"name":"Al Jazeera Port","code":"AEJAZ","country":"AE","lat":25.716667,"lon":55.8},{"name":"Al Jeer Port","code":"AEAJP","country":"AE","lat":26.033333,"lon":56.05},{"name":"Ar Ruways","code":"AERUW","country":"AE","lat":24.116667,"lon":52.733333},{"name":"Dibba","code":"AEDBP","country":"AE","lat":25.616667,"lon":56.266667},{"name":"Dubai","code":"AEDXB","country":"AE","lat":25.25,"lon":55.266667},{"name":"Esnnad","code":"AEEND","country":"AE","lat":24.316667,"lon":54.45},{"name":"Free Port","code":"AEFRP","country":"AE","lat":25.25,"lon":55.25},{"name":"Hamriya Free Zone Port","code":"AEHZP","country":"AE","lat":25.3,"lon":55.316667},{"name":"Hassyan","code":"AEHSN","country":"AE","lat":24.9,"lon":54.9},{"name":"Hulaylah Terminal","code":"AEHTL","country":"AE","lat":25.983333,"lon":55.933333},{"name":"Jebel Ali Free Zone","code":"AEQWE","country":"AE","lat":25.0,"lon":55.05},{"name":"Kalba","code":"AEKLB","country":"AE","lat":25.066667,"lon":56.35},{"name":"Khor al Fakkan","code":"AEKLF","country":"AE","lat":25.333333,"lon":56.35},{"name":"Mina Khalid","code":"AEMKH","country":"AE","lat":25.35,"lon":55.366667},{"name":"Mina Khalifa/Abu Dhabi","code":"AEKHL","country":"AE","lat":24.833333,"lon":54.666667},{"name":"Mina Rashid Port","code":"AEMRP","country":"AE","lat":25.266667,"lon":55.283333},{"name":"Mina Saqr","code":"AEMSA","country":"AE","lat":25.966667,"lon":56.066667},{"name":"Mina Zayed/Abu Dhabi","code":"AEMZD","country":"AE","lat":24.516667,"lon":54.366667},{"name":"Mirfa","code":"AERFA","country":"AE","lat":25.466667,"lon":53.483333},{"name":"Mubarras Island","code":"AEMBS","country":"AE","lat":24.583333,"lon":53.316667},{"name":"Musaffah","code":"AEAMF","country":"AE","lat":24.383333,"lon":54.483333},{"name":"Rak Khor Port","code":"AERKP","country":"AE","lat":25.816667,"lon":55.95},{"name":"Rak Maritime City","code":"AERMC","country":"AE","lat":25.95,"lon":56.05},{"name":"Ras al Khaimah","code":"AERKT","country":"AE","lat":25.783333,"lon":55.95},{"name":"Ruwais Port","code":"AERWP","country":"AE","lat":24.1,"lon":52.716667},{"name":"Sadiyat Island","code":"AESID","country":"AE","lat":24.533333,"lon":54.4},{"name":"Sharjah","code":"AESHJ","country":"AE","lat":25.35,"lon":55.383333},{"name":"Umm Al Nar","code":"AEULR","country":"AE","lat":24.433333,"lon":54.5},{"name":"Umm al Quwain","code":"AEQIW","country":"AE","lat":25.583333,"lon":55.583333},{"name":"Yas Island","code":"AEYAS","country":"AE","lat":24.316667,"lon":52.6},{"name":"Zirku Island","code":"AEZUR","country":"AE","lat":24.883333,"lon":53.066667},{"name":"Dehdadi","code":"AFDHD","country":"AF","lat":36.65,"lon":66.983333},{"name":"Qalat","code":"AFQLT","country":"AF","lat":32.1,"lon":66.883333},{"name":"Torkham","code":"AFRKH","country":"AF","lat":34.883333,"lon":71.916667},{"name":"Falmouth","code":"AGFAM","country":"AG","lat":17.016667,"lon":-61.783333},{"name":"Parham","code":"AGPHM","country":"AG","lat":17.083333,"lon":-61.75},{"name":"Saint John's","code":"AGSJO","country":"AG","lat":17.116667,"lon":-61.85},{"name":"Meads Bay Beach","code":"AIMBB","country":"AI","lat":18.166667,"lon":-63.133333},{"name":"Sombrero","code":"AISOM","country":"AI","lat":18.6,"lon":-63.466667},{"name":"Butrint","code":"ALBUT","country":"AL","lat":39.75,"lon":20.016667},{"name":"Himare","code":"ALHMR","country":"AL","lat":40.133333,"lon":19.716667},{"name":"Romano Port","code":"ALROM","country":"AL","lat":41.366667,"lon":19.416667},{"name":"Sarande","code":"ALSAR","country":"AL","lat":39.883333,"lon":20.0},{"name":"Shengjin","code":"ALSHG","country":"AL","lat":41.8,"lon":19.566667},{"name":"Vlore","code":"ALVOA","country":"AL","lat":40.466667,"lon":19.483333},{"name":"Baba","code":"AOBAB","country":"AO","lat":-14.833333,"lon":12.233333},{"name":"Baia dos Tigres","code":"AOBDT","country":"AO","lat":-16.6,"lon":11.733333},{"name":"Capulo","code":"AOCPO","country":"AO","lat":-7.983333,"lon":13.166667},{"name":"Cuio","code":"AOCUI","country":"AO","lat":-12.983333,"lon":12.983333},{"name":"Dalia","code":"AODAL","country":"AO","lat":-7.683333,"lon":11.783333},{"name":"Essungo Terminal","code":"AOETN","country":"AO","lat":-6.333333,"lon":12.166667},{"name":"Farta Bay","code":"AOFBY","country":"AO","lat":-12.616667,"lon":13.2},{"name":"Futila Terminal","code":"AOFLT","country":"AO","lat":-5.45,"lon":12.183333},{"name":"Gimboa","code":"AOGIM","country":"AO","lat":-7.533333,"lon":12.166667},{"name":"Girassol Terminal","code":"AOGIR","country":"AO","lat":-7.633333,"lon":11.683333},{"name":"Greater Plutonio","code":"AOGPO","country":"AO","lat":-7.833333,"lon":12.116667},{"name":"Kuito Terminal","code":"AOKOT","country":"AO","lat":-5.433333,"lon":11.483333},{"name":"Lombo Terminal","code":"AOLBT","country":"AO","lat":-6.983333,"lon":12.35},{"name":"Noqui","code":"AONQI","country":"AO","lat":-5.85,"lon":13.433333},{"name":"N'Zeto (Ambrizete)","code":"AONTO","country":"AO","lat":-7.266667,"lon":12.85},{"name":"Porto Saco (Portosalazar)","code":"AOPSA","country":"AO","lat":-15.133333,"lon":12.133333},{"name":"River Sao Nicolau","code":"AORSN","country":"AO","lat":-14.25,"lon":12.333333},{"name":"Sazaire Terminal","code":"AOSTL","country":"AO","lat":-6.083333,"lon":12.383333},{"name":"Aboa","code":"AQABA","country":"AQ","lat":-73.05,"lon":-13.416667},{"name":"Arctowski","code":"AQARC","country":"AQ","lat":-62.15,"lon":-58.466667},{"name":"Artigas","code":"AQART","country":"AQ","lat":-62.183333,"lon":-58.9},{"name":"Arturo Prat","code":"AQAPT","country":"AQ","lat":-62.5,"lon":-59.683333},{"name":"Bellingshausen","code":"AQBHN","country":"AQ","lat":-62.183333,"lon":-58.95},{"name":"Casey Station","code":"AQCAS","country":"AQ","lat":-66.283333,"lon":110.516667},{"name":"Comandante Ferraz","code":"AQCFZ","country":"AQ","lat":-62.083333,"lon":-58.383333},{"name":"Davis Station","code":"AQDAV","country":"AQ","lat":-68.566667,"lon":77.966667},{"name":"Dumont d'Urville Station","code":"AQDDU","country":"AQ","lat":-66.65,"lon":140.0},{"name":"Escudero","code":"AQESC","country":"AQ","lat":-62.2,"lon":-58.95},{"name":"Esperanza","code":"AQESP","country":"AQ","lat":-63.383333,"lon":-56.983333},{"name":"General Bernardo O'higgins","code":"AQOHG","country":"AQ","lat":-63.316667,"lon":-57.9},{"name":"Great Wall","code":"AQGWL","country":"AQ","lat":-62.216667,"lon":-58.966667},{"name":"Halley","code":"AQHLY","country":"AQ","lat":-75.566667,"lon":-26.533333},{"name":"Jang Bogo Station","code":"AQJBS","country":"AQ","lat":-74.6,"lon":164.2},{"name":"Juan Carlos Primero","code":"AQJCP","country":"AQ","lat":-62.65,"lon":-60.383333},{"name":"Jubany","code":"AQJUB","country":"AQ","lat":-62.233333,"lon":-58.65},{"name":"King Sejong","code":"AQKSG","country":"AQ","lat":-62.216667,"lon":-58.783333},{"name":"Kohnen","code":"AQKHN","country":"AQ","lat":-75.0,"lon":0.066667},{"name":"Law Base","code":"AQLAW","country":"AQ","lat":-69.383333,"lon":76.383333},{"name":"Marambio","code":"AQMRB","country":"AQ","lat":-64.233333,"lon":-56.65},{"name":"Mario Zucchelli","code":"AQMZU","country":"AQ","lat":-74.683333,"lon":164.116667},{"name":"Mawson Station","code":"AQMAW","country":"AQ","lat":-67.6,"lon":62.866667},{"name":"McMurdo","code":"AQMCM","country":"AQ","lat":-77.833333,"lon":166.666667},{"name":"Mirny","code":"AQMIR","country":"AQ","lat":-66.55,"lon":93.0},{"name":"Orcadas","code":"AQORC","country":"AQ","lat":-60.733333,"lon":-44.733333},{"name":"Palmer","code":"AQPLM","country":"AQ","lat":-64.766667,"lon":-64.05},{"name":"Port Foster","code":"AQPFS","country":"AQ","lat":-63.0,"lon":-60.566667},{"name":"Progress","code":"AQPRO","country":"AQ","lat":-69.4,"lon":76.383333},{"name":"Rothera","code":"AQROT","country":"AQ","lat":-67.566667,"lon":-68.116667},{"name":"San Martin","code":"AQSMT","country":"AQ","lat":-68.116667,"lon":-67.1},{"name":"Signy","code":"AQSGN","country":"AQ","lat":-60.716667,"lon":-45.6},{"name":"Syowa","code":"AQSYW","country":"AQ","lat":-69.0,"lon":39.583333},{"name":"Vernadsky","code":"AQVKY","country":"AQ","lat":-65.233333,"lon":-64.25},{"name":"Wasa","code":"AQWSA","country":"AQ","lat":-73.05,"lon":-13.416667},{"name":"Zhongshan","code":"AQZGN","country":"AQ","lat":-69.366667,"lon":76.383333},{"name":"Agrelo","code":"ARGEO","country":"AR","lat":-33.116667,"lon":-68.883333},{"name":"Arrecifes","code":"ARACF","country":"AR","lat":-34.083333,"lon":-60.116667},{"name":"Arroyo Seco","code":"ARASO","country":"AR","lat":-33.133333,"lon":-60.433333},{"name":"Bahia Blanca","code":"ARBHI","country":"AR","lat":-38.716667,"lon":-62.283333},{"name":"Bella Vista","code":"ARBVC","country":"AR","lat":-28.5,"lon":-59.05},{"name":"Buenos Aires","code":"ARBUE","country":"AR","lat":-34.583333,"lon":-58.666667},{"name":"Cabo San Antonio","code":"ARCSA","country":"AR","lat":-36.033333,"lon":-56.566667},{"name":"Caleta Cordoba","code":"ARCLC","country":"AR","lat":-45.733333,"lon":-67.066667},{"name":"Campana","code":"ARCMP","country":"AR","lat":-34.15,"lon":-58.95},{"name":"Candelaria","code":"ARCDL","country":"AR","lat":-27.45,"lon":-55.75},{"name":"Chilecito","code":"ARCHO","country":"AR","lat":-29.166667,"lon":-67.5},{"name":"Chimbas","code":"ARCBS","country":"AR","lat":-31.483333,"lon":-68.533333},{"name":"Colon","code":"ARCOL","country":"AR","lat":-32.216667,"lon":-58.133333},{"name":"Concepcion del Uruguay","code":"ARCOU","country":"AR","lat":-32.483333,"lon":-58.233333},{"name":"Coquimbito","code":"ARIQO","country":"AR","lat":-32.966667,"lon":-68.75},{"name":"Del Guazu","code":"ARDGU","country":"AR","lat":-33.9,"lon":-58.866667},{"name":"Diamante","code":"ARDME","country":"AR","lat":-32.066667,"lon":-60.65},{"name":"Dock Sur","code":"ARDSU","country":"AR","lat":-34.65,"lon":-58.333333},{"name":"Gualeguaychu","code":"ARGHU","country":"AR","lat":-33.016667,"lon":-58.516667},{"name":"Ibicuy","code":"ARIBY","country":"AR","lat":-33.733333,"lon":-59.166667},{"name":"Ingeniero Buitrago","code":"ARBUI","country":"AR","lat":-33.35,"lon":-60.133333},{"name":"Ingeniero White/Bahia Blanca","code":"ARINW","country":"AR","lat":-38.783333,"lon":-62.266667},{"name":"La Paz","code":"ARLPM","country":"AR","lat":-33.466667,"lon":-67.55},{"name":"La Plata","code":"ARLPG","country":"AR","lat":-34.85,"lon":-57.883333},{"name":"Las Palmas","code":"ARLPS","country":"AR","lat":-34.016667,"lon":-59.116667},{"name":"Lavalle","code":"ARLAV","country":"AR","lat":-28.2,"lon":-65.133333},{"name":"Lujan","code":"ARLUJ","country":"AR","lat":-34.566667,"lon":-59.1},{"name":"Lujan de Cuyo","code":"ARLCU","country":"AR","lat":-33.05,"lon":-68.866667},{"name":"Luzuriaga","code":"ARLZG","country":"AR","lat":-32.95,"lon":-68.816667},{"name":"Mar del Plata","code":"ARMDQ","country":"AR","lat":-38.05,"lon":-57.533333},{"name":"Molinos","code":"ARNOS","country":"AR","lat":-25.416667,"lon":-66.316667},{"name":"Olavarria","code":"AROVI","country":"AR","lat":-36.883333,"lon":-60.333333},{"name":"Pablo Podesta","code":"ARPP9","country":"AR","lat":-34.6,"lon":-58.516667},{"name":"Parana","code":"ARPRA","country":"AR","lat":-31.733333,"lon":-60.533333},{"name":"Puerto Alumbrera","code":"ARPAL","country":"AR","lat":-32.65,"lon":-60.75},{"name":"Puerto Deseado","code":"ARPUD","country":"AR","lat":-47.75,"lon":-65.9},{"name":"Puerto Eldorado","code":"ARPEL","country":"AR","lat":-26.35,"lon":-54.683333},{"name":"Puerto Ingeniero M. Rocca","code":"ARROC","country":"AR","lat":-34.85,"lon":-57.933333},{"name":"Puerto Lavalle","code":"ARPLA","country":"AR","lat":-29.016667,"lon":-59.183333},{"name":"Puerto Madryn","code":"ARPMY","country":"AR","lat":-42.75,"lon":-65.033333},{"name":"Puerto Rosales/Bahia Blanca","code":"ARPRS","country":"AR","lat":-38.933333,"lon":-62.066667},{"name":"Puerto Wanda","code":"ARPWA","country":"AR","lat":-25.966667,"lon":-54.6},{"name":"Punta Colorada","code":"ARPCO","country":"AR","lat":-41.7,"lon":-65.0},{"name":"Punta Medanos","code":"ARPME","country":"AR","lat":-36.833333,"lon":-56.666667},{"name":"Quebracho/San Lorenzo","code":"ARQBR","country":"AR","lat":-32.65,"lon":-60.716667},{"name":"Quequen","code":"ARQQN","country":"AR","lat":-38.533333,"lon":-58.7},{"name":"Rawson","code":"ARRWO","country":"AR","lat":-43.3,"lon":-65.1},{"name":"Resinfor","code":"ARRSF","country":"AR","lat":-32.65,"lon":-60.733333},{"name":"Rio Cullen","code":"ARRIC","country":"AR","lat":-52.8,"lon":-68.183333},{"name":"Rio Gallegos","code":"ARRGL","country":"AR","lat":-51.633333,"lon":-69.216667},{"name":"Rio Grande","code":"ARRGA","country":"AR","lat":-53.783333,"lon":-67.7},{"name":"Rivadavia","code":"ARRIV","country":"AR","lat":-33.183333,"lon":-68.466667},{"name":"Rosario","code":"ARROS","country":"AR","lat":-32.95,"lon":-60.65},{"name":"Rosario de la Frontera","code":"ARRFO","country":"AR","lat":-25.8,"lon":-64.966667},{"name":"San Antonio Este","code":"ARSAE","country":"AR","lat":-40.8,"lon":-64.733333},{"name":"San Carlos","code":"ARSCA","country":"AR","lat":-33.766667,"lon":-69.033333},{"name":"San Ignacio","code":"ARSIG","country":"AR","lat":-27.266667,"lon":-55.566667},{"name":"San Julian","code":"ARULA","country":"AR","lat":-49.3,"lon":-67.716667},{"name":"San Martin","code":"ARSMR","country":"AR","lat":-33.066667,"lon":-68.466667},{"name":"San Martin","code":"ARSMA","country":"AR","lat":-32.716667,"lon":-60.733333},{"name":"San Nicolas de los Arroyos","code":"ARSNS","country":"AR","lat":-33.333333,"lon":-60.233333},{"name":"San Pedro","code":"ARSPD","country":"AR","lat":-33.683333,"lon":-59.166667},{"name":"San Salvador de Jujuy","code":"ARSSJ","country":"AR","lat":-24.183333,"lon":-65.3},{"name":"San Sebastian","code":"ARSSN","country":"AR","lat":-53.3,"lon":-68.466667},{"name":"Santa Ana","code":"ARSAN","country":"AR","lat":-27.333333,"lon":-55.583333},{"name":"Santa Cruz","code":"ARRZA","country":"AR","lat":-50.016667,"lon":-68.416667},{"name":"Santa Fe","code":"ARSFN","country":"AR","lat":-31.6,"lon":-60.683333},{"name":"Santa Rosa","code":"ARSTA","country":"AR","lat":-33.25,"lon":-68.15},{"name":"Timbues","code":"ARTIM","country":"AR","lat":-32.633333,"lon":-60.783333},{"name":"Tres Arroyos","code":"AROYO","country":"AR","lat":-38.383333,"lon":-60.283333},{"name":"Tucuman","code":"ARTUC","country":"AR","lat":-26.816667,"lon":-65.216667},{"name":"Tunuyan","code":"ARTUN","country":"AR","lat":-33.566667,"lon":-69.016667},{"name":"Urdurrain","code":"ARURD","country":"AR","lat":-32.683333,"lon":-58.883333},{"name":"Ushuaia","code":"ARUSH","country":"AR","lat":-54.8,"lon":-68.3},{"name":"Vicente Lopez","code":"ARVLO","country":"AR","lat":-34.516667,"lon":-58.483333},{"name":"Villa Constitucion","code":"ARVCN","country":"AR","lat":-33.233333,"lon":-60.333333},{"name":"Villa Hernandarias","code":"ARVHE","country":"AR","lat":-31.233333,"lon":-59.983333},{"name":"Zarate","code":"ARZAE","country":"AR","lat":-34.1,"lon":-59.033333},{"name":"Pago Pago","code":"ASPPG","country":"AS","lat":14.266667,"lon":-170.7},{"name":"Achau","code":"ATFG7","country":"AT","lat":48.666667,"lon":-162.5},{"name":"Altenworth","code":"ATAWH","country":"AT","lat":48.383333,"lon":15.85},{"name":"Asten","code":"ATATN","country":"AT","lat":48.216667,"lon":14.4},{"name":"Bernhardsthal","code":"ATSXA","country":"AT","lat":48.683333,"lon":16.866667},{"name":"Bischofshofen","code":"ATBFS","country":"AT","lat":47.416667,"lon":13.216667},{"name":"Bohlerwenk","code":"ATBOE","country":"AT","lat":47.983333,"lon":14.75},{"name":"Bregenz","code":"ATBRZ","country":"AT","lat":47.5,"lon":9.766667},{"name":"Deutsch Wagram","code":"ATDWA","country":"AT","lat":48.3,"lon":16.566667},{"name":"Deutschkreutz","code":"ATDKZ","country":"AT","lat":47.6,"lon":16.633333},{"name":"Dobermannsdorf","code":"ATERR","country":"AT","lat":48.6,"lon":16.816667},{"name":"Donnerskirchen","code":"ATNNN","country":"AT","lat":47.9,"lon":16.633333},{"name":"Drasenhofen","code":"ATDRA","country":"AT","lat":48.75,"lon":-16.65},{"name":"Dross","code":"ATDRO","country":"AT","lat":48.45,"lon":15.566667},{"name":"Durnstein","code":"ATDUE","country":"AT","lat":48.383333,"lon":15.516667},{"name":"Ebreichsdorf","code":"ATEBR","country":"AT","lat":47.95,"lon":16.4},{"name":"Eibiswald","code":"ATEWD","country":"AT","lat":46.683333,"lon":15.833333},{"name":"Engabrunn","code":"ATBRI","country":"AT","lat":48.45,"lon":15.75},{"name":"Engelmannsbrunn","code":"ATERO","country":"AT","lat":48.45,"lon":15.883333},{"name":"Engerwitzdorf","code":"ATDFC","country":"AT","lat":48.35,"lon":14.45},{"name":"Erl","code":"ATERL","country":"AT","lat":47.666667,"lon":12.166667},{"name":"Erpersdorf","code":"ATEPD","country":"AT","lat":48.333333,"lon":15.9},{"name":"Faistenau","code":"ATFSU","country":"AT","lat":47.766667,"lon":13.216667},{"name":"Falkenstein","code":"ATLKN","country":"AT","lat":48.716667,"lon":13.583333},{"name":"Fehring","code":"ATFHR","country":"AT","lat":46.933333,"lon":16.0},{"name":"Freudenau","code":"ATFNA","country":"AT","lat":48.183333,"lon":16.433333},{"name":"Fulpmes","code":"ATFPS","country":"AT","lat":47.15,"lon":11.35},{"name":"Gamlitz","code":"ATGA6","country":"AT","lat":46.716667,"lon":15.55},{"name":"Gmunden","code":"ATGDN","country":"AT","lat":47.916667,"lon":13.8},{"name":"Greifenstein","code":"ATGFS","country":"AT","lat":48.333333,"lon":16.233333},{"name":"Grein","code":"ATGRN","country":"AT","lat":48.216667,"lon":14.833333},{"name":"Gross-Schweinbarth","code":"ATSWH","country":"AT","lat":48.4,"lon":16.616667},{"name":"Gutenstein","code":"ATGSN","country":"AT","lat":47.866667,"lon":15.883333},{"name":"Hadersdorf","code":"ATDOF","country":"AT","lat":48.45,"lon":15.716667},{"name":"Hadersdorf-Kammern","code":"ATHKM","country":"AT","lat":48.45,"lon":15.716667},{"name":"Hainfeld","code":"ATLTX","country":"AT","lat":48.033333,"lon":15.766667},{"name":"Haugsdorf","code":"ATGHH","country":"AT","lat":48.7,"lon":16.066667},{"name":"Hausleiten","code":"ATITN","country":"AT","lat":48.383333,"lon":16.1},{"name":"Hausmannstatten","code":"ATTEN","country":"AT","lat":46.983333,"lon":15.5},{"name":"Hobersbrunn","code":"ATBNN","country":"AT","lat":48.5,"lon":16.566667},{"name":"Hoflein","code":"ATEIN","country":"AT","lat":48.066667,"lon":16.783333},{"name":"Inzersdorf an der Traisen","code":"ATZIN","country":"AT","lat":48.316667,"lon":15.666667},{"name":"Japons","code":"ATJPS","country":"AT","lat":48.783333,"lon":15.566667},{"name":"Jetzelsdorf","code":"ATZLF","country":"AT","lat":48.7,"lon":16.05},{"name":"Judendorf","code":"ATJDD","country":"AT","lat":47.116667,"lon":15.35},{"name":"Kammern im Liesingtal","code":"ATKAM","country":"AT","lat":47.4,"lon":14.9},{"name":"Kematen in Tirol","code":"ATKTT","country":"AT","lat":47.25,"lon":11.266667},{"name":"Ketzelsdorf","code":"ATZRF","country":"AT","lat":48.65,"lon":16.65},{"name":"Knittelfeld","code":"ATKFD","country":"AT","lat":47.2,"lon":14.816667},{"name":"Krummnussbaum","code":"ATKMB","country":"AT","lat":48.216667,"lon":15.166667},{"name":"Krustetten","code":"ATGHJ","country":"AT","lat":48.366667,"lon":-154.0},{"name":"Langenzersdorf","code":"ATLZD","country":"AT","lat":48.3,"lon":16.35},{"name":"Lembach","code":"ATLUA","country":"AT","lat":48.483333,"lon":13.883333},{"name":"Leutschach","code":"ATLTS","country":"AT","lat":46.666667,"lon":15.466667},{"name":"Limberg","code":"ATIEG","country":"AT","lat":48.583333,"lon":15.866667},{"name":"Manning","code":"ATMAN","country":"AT","lat":48.083333,"lon":13.666667},{"name":"Marbach an der Donau","code":"ATMAB","country":"AT","lat":48.216667,"lon":15.15},{"name":"Markt Allhau","code":"ATMKA","country":"AT","lat":47.233333,"lon":16.083333},{"name":"Mitterkirchen","code":"ATMKC","country":"AT","lat":48.183333,"lon":14.7},{"name":"Morbisch am See","code":"ATMBS","country":"AT","lat":47.75,"lon":16.666667},{"name":"Muthmannsdorf","code":"ATNT9","country":"AT","lat":47.833333,"lon":16.1},{"name":"Neudegg","code":"ATNGG","country":"AT","lat":48.483333,"lon":15.883333},{"name":"Neufelden","code":"ATNFN","country":"AT","lat":48.483333,"lon":13.983333},{"name":"Neuhofen an der Ybbs","code":"ATNAD","country":"AT","lat":48.05,"lon":14.85},{"name":"Nickelsdorf","code":"ATND2","country":"AT","lat":47.933333,"lon":17.066667},{"name":"Nuziders","code":"ATNUZ","country":"AT","lat":47.183333,"lon":9.8},{"name":"Oehling","code":"ATXAE","country":"AT","lat":48.1,"lon":14.8},{"name":"Oggau","code":"ATGGU","country":"AT","lat":47.833333,"lon":16.666667},{"name":"Ottensheim","code":"ATOSH","country":"AT","lat":48.333333,"lon":14.183333},{"name":"Paternion","code":"ATATK","country":"AT","lat":46.7,"lon":13.633333},{"name":"Persenbeug","code":"ATPBU","country":"AT","lat":48.183333,"lon":15.066667},{"name":"Petzenkirchen","code":"ATPET","country":"AT","lat":48.133333,"lon":15.15},{"name":"Podersdorf am See","code":"ATPAS","country":"AT","lat":47.85,"lon":16.833333},{"name":"Prinzersdorf","code":"AT7PZ","country":"AT","lat":48.2,"lon":15.516667},{"name":"Radstadt","code":"ATRAD","country":"AT","lat":47.383333,"lon":13.45},{"name":"Ranshofen","code":"ATRHN","country":"AT","lat":48.233333,"lon":13.0},{"name":"Regau","code":"ATREG","country":"AT","lat":48.083333,"lon":14.133333},{"name":"Rietz","code":"ATETZ","country":"AT","lat":47.283333,"lon":11.05},{"name":"Rohrau","code":"ATRHR","country":"AT","lat":48.066667,"lon":16.85},{"name":"Ruhrsdorf","code":"ATRRF","country":"AT","lat":48.4,"lon":15.5},{"name":"Sankt Aegidi","code":"ATSAK","country":"AT","lat":48.483333,"lon":13.75},{"name":"Sankt Georgen bei Salzburg","code":"ATSGS","country":"AT","lat":47.983333,"lon":12.883333},{"name":"Sankt Margarethen an der Raab","code":"ATSMR","country":"AT","lat":47.05,"lon":15.75},{"name":"Sankt Margrethen","code":"ATSK3","country":"AT","lat":46.633333,"lon":14.383333},{"name":"Sankt Stefan ob Stainz","code":"ATFBZ","country":"AT","lat":46.916667,"lon":15.25},{"name":"Sankt Ulrich","code":"ATSUH","country":"AT","lat":48.6,"lon":16.766667},{"name":"Sankt Veit im Muhlkreis","code":"ATSVM","country":"AT","lat":48.466667,"lon":14.15},{"name":"Schonau im Muhlkreis","code":"ATSMK","country":"AT","lat":48.383333,"lon":14.733333},{"name":"Schrattenthal","code":"ATTTL","country":"AT","lat":48.7,"lon":15.9},{"name":"Schutzen am Gebirge","code":"ATSAG","country":"AT","lat":47.85,"lon":16.616667},{"name":"Senftenberg","code":"ATSFT","country":"AT","lat":48.433333,"lon":15.55},{"name":"Spannberg","code":"ATSPG","country":"AT","lat":48.45,"lon":16.733333},{"name":"Spitz","code":"ATSPZ","country":"AT","lat":48.366667,"lon":15.416667},{"name":"Steeg","code":"ATSTD","country":"AT","lat":47.6,"lon":13.633333},{"name":"Steinberg","code":"ATSSS","country":"AT","lat":47.483333,"lon":16.483333},{"name":"Steinhaus","code":"ATSUS","country":"AT","lat":48.116667,"lon":14.016667},{"name":"Straden","code":"ATST6","country":"AT","lat":46.8,"lon":15.866667},{"name":"Tamsweg","code":"ATTAM","country":"AT","lat":47.133333,"lon":13.8},{"name":"Taufkirchen an der Pram","code":"ATTKP","country":"AT","lat":48.416667,"lon":13.533333},{"name":"Terfens","code":"ATTFS","country":"AT","lat":47.316667,"lon":11.65},{"name":"Theiss","code":"ATTHS","country":"AT","lat":48.383333,"lon":15.683333},{"name":"Traismauer","code":"ATTMR","country":"AT","lat":48.333333,"lon":15.733333},{"name":"Velden","code":"ATVEL","country":"AT","lat":46.616667,"lon":14.05},{"name":"Vordernberg","code":"ATERM","country":"AT","lat":47.466667,"lon":15.0},{"name":"Wallsee","code":"ATWSE","country":"AT","lat":48.166667,"lon":14.716667},{"name":"Weinburg","code":"ATWEU","country":"AT","lat":48.1,"lon":15.516667},{"name":"Weitendorf","code":"ATWDF","country":"AT","lat":46.883333,"lon":15.466667},{"name":"Wulkaprodersdorf","code":"ATWUL","country":"AT","lat":47.8,"lon":16.5},{"name":"Zobing","code":"ATZNG","country":"AT","lat":48.483333,"lon":15.683333},{"name":"Abbot Point","code":"AUABP","country":"AU","lat":-19.9,"lon":148.083333},{"name":"Abell Point","code":"AUALP","country":"AU","lat":-20.266667,"lon":148.716667},{"name":"Adelaide","code":"AUADL","country":"AU","lat":-34.916667,"lon":138.583333},{"name":"Airlie Terminal","code":"AUAIR","country":"AU","lat":-21.333333,"lon":115.166667},{"name":"Aldgate","code":"AUALD","country":"AU","lat":-35.016667,"lon":138.733333},{"name":"Amrun","code":"AUAMR","country":"AU","lat":-12.916667,"lon":141.616667},{"name":"Annandale","code":"AUANN","country":"AU","lat":-33.883333,"lon":151.166667},{"name":"Applecross","code":"AUAPP","country":"AU","lat":-32.016667,"lon":115.833333},{"name":"Armadale","code":"AUAUA","country":"AU","lat":-32.15,"lon":116.0},{"name":"Arndell Park","code":"AUDLP","country":"AU","lat":-33.783333,"lon":150.866667},{"name":"Ashburton","code":"AUASB","country":"AU","lat":-21.683333,"lon":115.0},{"name":"Ashton","code":"AUASH","country":"AU","lat":-34.933333,"lon":138.733333},{"name":"Aspendale","code":"AUP6D","country":"AU","lat":-38.033333,"lon":145.1},{"name":"Attadale","code":"AUATT","country":"AU","lat":-32.016667,"lon":115.783333},{"name":"Augusta","code":"AUAGS","country":"AU","lat":-34.316667,"lon":115.166667},{"name":"Australind","code":"AUALI","country":"AU","lat":-33.283333,"lon":115.716667},{"name":"Baerami","code":"AUBAE","country":"AU","lat":-32.4,"lon":150.483333},{"name":"Balhannah","code":"AUBAA","country":"AU","lat":-34.983333,"lon":138.833333},{"name":"Balnarring","code":"AUBAL","country":"AU","lat":-38.366667,"lon":145.133333},{"name":"Bannockburn","code":"AUBNN","country":"AU","lat":-38.05,"lon":144.166667},{"name":"Barry Beach","code":"AUBAR","country":"AU","lat":-38.7,"lon":146.383333},{"name":"Beelbangera","code":"AUBBL","country":"AU","lat":-34.266667,"lon":146.1},{"name":"Belrose","code":"AUBE9","country":"AU","lat":-33.733333,"lon":151.216667},{"name":"Belvidere","code":"AUBVD","country":"AU","lat":-35.3,"lon":138.933333},{"name":"Beresfield","code":"AUBFD","country":"AU","lat":-32.8,"lon":151.65},{"name":"Berkeley Vale","code":"AUBKE","country":"AU","lat":-33.35,"lon":151.433333},{"name":"Berrys Creek","code":"AUBRR","country":"AU","lat":-38.416667,"lon":146.066667},{"name":"Bicheno","code":"AUBIC","country":"AU","lat":-41.866667,"lon":148.283333},{"name":"Bing Bong","code":"AUBBG","country":"AU","lat":-15.6,"lon":136.35},{"name":"Black Point","code":"AUBLP","country":"AU","lat":-11.15,"lon":132.15},{"name":"Blackmans Bay","code":"AUTTS","country":"AU","lat":-42.983333,"lon":147.316667},{"name":"Blacktip Terminal","code":"AUBOV","country":"AU","lat":-14.4,"lon":129.35},{"name":"Blayney","code":"AUBNY","country":"AU","lat":-33.533333,"lon":149.25},{"name":"Bobin","code":"AUBOB","country":"AU","lat":-31.716667,"lon":152.283333},{"name":"Bomaderry","code":"AUBDY","country":"AU","lat":-34.85,"lon":150.616667},{"name":"Booby Island","code":"AUBOO","country":"AU","lat":-10.6,"lon":141.916667},{"name":"Boondall","code":"AUBOD","country":"AU","lat":-27.333333,"lon":153.05},{"name":"Boort","code":"AUBOT","country":"AU","lat":-36.116667,"lon":143.716667},{"name":"Boundary Bend","code":"AUBOU","country":"AU","lat":-34.7,"lon":143.15},{"name":"Boyer","code":"AUBOY","country":"AU","lat":-42.833333,"lon":147.3},{"name":"Bremer Bay","code":"AUBBY","country":"AU","lat":-34.383333,"lon":119.366667},{"name":"Bridgewater-on-Loddon","code":"AUBOL","country":"AU","lat":-36.6,"lon":143.95},{"name":"Bridport","code":"AUBPO","country":"AU","lat":-41.0,"lon":147.4},{"name":"Brighton-Le-Sands","code":"AUBSA","country":"AU","lat":-33.95,"lon":151.15},{"name":"Brisbane","code":"AUBNE","country":"AU","lat":-27.466667,"lon":153.016667},{"name":"Broke","code":"AUNSB","country":"AU","lat":-32.75,"lon":151.1},{"name":"Bulli","code":"AUBUL","country":"AU","lat":-34.3,"lon":150.916667},{"name":"Bullsbrook","code":"AUBLL","country":"AU","lat":-31.666667,"lon":116.0},{"name":"Bulwer","code":"AUBWI","country":"AU","lat":-27.066667,"lon":153.366667},{"name":"Burketown","code":"AUBUC","country":"AU","lat":-17.733333,"lon":139.533333},{"name":"Bushy Park","code":"AUBYY","country":"AU","lat":-37.866667,"lon":147.033333},{"name":"Cambridge","code":"AUCMB","country":"AU","lat":-42.833333,"lon":147.45},{"name":"Camperdown","code":"AUCMP","country":"AU","lat":-33.883333,"lon":151.166667},{"name":"Capalaba","code":"AUCAP","country":"AU","lat":-27.516667,"lon":153.183333},{"name":"Cape Don","code":"AUDON","country":"AU","lat":-11.316667,"lon":131.75},{"name":"Carboor","code":"AUCBO","country":"AU","lat":-36.633333,"lon":146.55},{"name":"Carina Heights","code":"AUCAR","country":"AU","lat":-27.5,"lon":153.083333},{"name":"Carlingford","code":"AUCLF","country":"AU","lat":-33.783333,"lon":151.05},{"name":"Caufield North","code":"AUCUN","country":"AU","lat":-37.866667,"lon":14.85},{"name":"Caversham","code":"AUCVS","country":"AU","lat":-31.883333,"lon":115.966667},{"name":"Challis Venture (oil Terminal)","code":"AUCHV","country":"AU","lat":-12.116667,"lon":125.016667},{"name":"Chermside","code":"AUCHE","country":"AU","lat":-27.383333,"lon":153.166667},{"name":"Chinderah","code":"AUCN6","country":"AU","lat":-28.233333,"lon":153.55},{"name":"Chittering","code":"AUCHT","country":"AU","lat":-31.483333,"lon":116.1},{"name":"Clare","code":"AUSCL","country":"AU","lat":-33.833333,"lon":138.6},{"name":"Claremont","code":"AUCLM","country":"AU","lat":-31.983333,"lon":115.783333},{"name":"Clarendon","code":"AUCDN","country":"AU","lat":-35.116667,"lon":138.633333},{"name":"Cleveland","code":"AUCVN","country":"AU","lat":-27.533333,"lon":153.266667},{"name":"Clovelly","code":"AUCVL","country":"AU","lat":-33.9,"lon":151.25},{"name":"Cockatoo Island","code":"AUCTI","country":"AU","lat":-16.1,"lon":123.616667},{"name":"Coldstream","code":"AUCST","country":"AU","lat":-37.716667,"lon":145.366667},{"name":"Como","code":"AUCMO","country":"AU","lat":-34.0,"lon":151.066667},{"name":"Condamine","code":"AUCDE","country":"AU","lat":-26.933333,"lon":150.133333},{"name":"Coolum","code":"AUCOU","country":"AU","lat":-26.55,"lon":153.083333},{"name":"Coomera","code":"AUCOO","country":"AU","lat":-27.883333,"lon":153.3},{"name":"Coonawarra","code":"AUCNW","country":"AU","lat":-37.3,"lon":140.816667},{"name":"Coorparoo","code":"AUCPR","country":"AU","lat":-27.5,"lon":153.05},{"name":"Coral Bay","code":"AUCRL","country":"AU","lat":-23.133333,"lon":113.766667},{"name":"Coral Sea","code":"AUCRS","country":"AU","lat":-19.083333,"lon":150.9},{"name":"Corio Bay","code":"AUCBA","country":"AU","lat":-38.116667,"lon":144.433333},{"name":"Coromandel Valley","code":"AUCRV","country":"AU","lat":-35.05,"lon":138.616667},{"name":"Cossack Pioneer (oil Terminal)","code":"AUCOP","country":"AU","lat":-19.583333,"lon":116.45},{"name":"Cottesloe","code":"AUCTE","country":"AU","lat":-32.0,"lon":115.766667},{"name":"Cottles Bridge","code":"AUCTT","country":"AU","lat":-37.633333,"lon":145.216667},{"name":"Cowandilla","code":"AUDIL","country":"AU","lat":-34.916667,"lon":138.55},{"name":"Cowaramup","code":"AUCOW","country":"AU","lat":-33.866667,"lon":115.083333},{"name":"Crafers","code":"AUCRF","country":"AU","lat":-35.0,"lon":138.7},{"name":"Crestmead","code":"AUCRE","country":"AU","lat":-27.683333,"lon":153.083333},{"name":"Cromer","code":"AUC8R","country":"AU","lat":-34.766667,"lon":139.0},{"name":"Cronulla","code":"AUCRU","country":"AU","lat":-34.05,"lon":151.15},{"name":"Dalrymple Islet","code":"AUDIT","country":"AU","lat":-9.6,"lon":143.3},{"name":"Dalton","code":"AUDAL","country":"AU","lat":-34.716667,"lon":149.183333},{"name":"Dardanup","code":"AUDAR","country":"AU","lat":-33.4,"lon":115.75},{"name":"Darwin","code":"AUDRW","country":"AU","lat":-12.45,"lon":130.833333},{"name":"Dhipirrinjura","code":"AUDHI","country":"AU","lat":-12.25,"lon":135.083333},{"name":"Diamond Creek","code":"AUDIA","country":"AU","lat":-37.666667,"lon":145.15},{"name":"Drysdale","code":"AUDRY","country":"AU","lat":-38.166667,"lon":144.566667},{"name":"Eden Valley","code":"AUEDE","country":"AU","lat":-34.65,"lon":139.1},{"name":"Elizabeth Bay","code":"AUELB","country":"AU","lat":-11.9,"lon":136.55},{"name":"Eltham","code":"AUELT","country":"AU","lat":-37.733333,"lon":145.15},{"name":"Evans Landing","code":"AUEVL","country":"AU","lat":-12.666667,"lon":141.85},{"name":"Findon","code":"AUFIN","country":"AU","lat":-34.9,"lon":138.533333},{"name":"Flynn","code":"AUFLN","country":"AU","lat":-38.166667,"lon":146.683333},{"name":"Frankland","code":"AUFLD","country":"AU","lat":-34.366667,"lon":114.066667},{"name":"Freshwater","code":"AUFWT","country":"AU","lat":-33.766667,"lon":151.283333},{"name":"Garbutt","code":"AUGBT","country":"AU","lat":-19.266667,"lon":146.766667},{"name":"Gembrook","code":"AUGEM","country":"AU","lat":-37.95,"lon":145.55},{"name":"Goolwa","code":"AUGOA","country":"AU","lat":-35.5,"lon":138.783333},{"name":"Gordon","code":"AUGOR","country":"AU","lat":-37.583333,"lon":144.1},{"name":"Gove Harbour","code":"AUGOH","country":"AU","lat":-12.216667,"lon":136.666667},{"name":"Grantham","code":"AUGTH","country":"AU","lat":-27.583333,"lon":152.2},{"name":"Gravelly Beach","code":"AUGRB","country":"AU","lat":-41.3,"lon":146.966667},{"name":"Great Western","code":"AUGTW","country":"AU","lat":-37.15,"lon":142.85},{"name":"Greenock","code":"AUGRK","country":"AU","lat":-34.466667,"lon":138.916667},{"name":"Griffin Venture (oil Terminal)","code":"AUGRV","country":"AU","lat":-21.216667,"lon":114.633333},{"name":"Gruyere","code":"AUGRU","country":"AU","lat":-37.733333,"lon":145.45},{"name":"Gumeracha","code":"AUGUM","country":"AU","lat":-34.833333,"lon":138.883333},{"name":"Hahndorf","code":"AUHAH","country":"AU","lat":-35.033333,"lon":138.8},{"name":"Halletts Cove","code":"AUHTT","country":"AU","lat":-35.066667,"lon":138.5},{"name":"Hampton","code":"AUHAM","country":"AU","lat":-38.333333,"lon":145.25},{"name":"Hanwood","code":"AUHWD","country":"AU","lat":-34.333333,"lon":146.033333},{"name":"Happy Valley","code":"AUHPP","country":"AU","lat":-35.083333,"lon":138.533333},{"name":"Hastings","code":"AUHAS","country":"AU","lat":-38.3,"lon":145.25},{"name":"Heathcote","code":"AUHTH","country":"AU","lat":-36.916667,"lon":144.716667},{"name":"Heatherbrae","code":"AUHBE","country":"AU","lat":-32.783333,"lon":151.733333},{"name":"Henderson","code":"AUHFR","country":"AU","lat":-32.166667,"lon":115.766667},{"name":"Hinchinbrook Island","code":"AUHNK","country":"AU","lat":-18.383333,"lon":146.283333},{"name":"Hobart","code":"AUHBA","country":"AU","lat":-42.866667,"lon":147.3},{"name":"Hoddles Creek","code":"AUHDD","country":"AU","lat":-37.833333,"lon":145.583333},{"name":"Ingle Farm","code":"AUIGF","country":"AU","lat":-34.833333,"lon":138.633333},{"name":"Irymple","code":"AUIRY","country":"AU","lat":-34.25,"lon":142.166667},{"name":"Jarrahdale","code":"AUJAR","country":"AU","lat":-32.35,"lon":116.066667},{"name":"Kangarilla","code":"AUKAN","country":"AU","lat":-35.15,"lon":138.65},{"name":"Karumba","code":"AUKRB","country":"AU","lat":-17.483333,"lon":140.833333},{"name":"Kayena","code":"AUKAY","country":"AU","lat":-41.183333,"lon":146.883333},{"name":"Keith","code":"AUKEI","country":"AU","lat":-36.1,"lon":140.35},{"name":"Kensington Gardens","code":"AUKNG","country":"AU","lat":-35.533333,"lon":139.1},{"name":"Keyneton","code":"AUKEY","country":"AU","lat":-34.566667,"lon":139.133333},{"name":"Lake Macquarie","code":"AULMQ","country":"AU","lat":-33.066667,"lon":151.6},{"name":"Lakes Entrance","code":"AULEN","country":"AU","lat":-37.883333,"lon":147.983333},{"name":"Langarra","code":"AULAN","country":"AU","lat":-12.083333,"lon":135.35},{"name":"Laurieton","code":"AUJML","country":"AU","lat":-31.65,"lon":152.8},{"name":"Lilydale","code":"AULYD","country":"AU","lat":-37.75,"lon":145.366667},{"name":"Lisarow","code":"AULOW","country":"AU","lat":-33.383333,"lon":151.366667},{"name":"Lucky Bay","code":"AULUB","country":"AU","lat":-33.683333,"lon":136.916667},{"name":"Mackay","code":"AUMKY","country":"AU","lat":-21.15,"lon":149.2},{"name":"Macquarie Island","code":"AUMQI","country":"AU","lat":-54.483333,"lon":158.933333},{"name":"Macquarie Park","code":"AUMRK","country":"AU","lat":-33.766667,"lon":151.116667},{"name":"Maribyrnong","code":"AUMBY","country":"AU","lat":-37.783333,"lon":144.883333},{"name":"Marrickville","code":"AUMAR","country":"AU","lat":-33.916667,"lon":151.166667},{"name":"Maryborough","code":"AUSAD","country":"AU","lat":-37.5,"lon":143.75},{"name":"Maryknoll","code":"AUKLL","country":"AU","lat":-38.916667,"lon":145.6},{"name":"Melbourne","code":"AUMEL","country":"AU","lat":-37.816667,"lon":144.966667},{"name":"Melville Island","code":"AUMLI","country":"AU","lat":-11.55,"lon":130.933333},{"name":"Midland","code":"AUMID","country":"AU","lat":31.883333,"lon":-115.983333},{"name":"Montara Field","code":"AUMON","country":"AU","lat":-13.083333,"lon":124.083333},{"name":"Mooloolaba","code":"AUMLL","country":"AU","lat":-26.683333,"lon":153.133333},{"name":"Moorook","code":"AUMOK","country":"AU","lat":-34.283333,"lon":140.35},{"name":"Mordialloc","code":"AUMDC","country":"AU","lat":-38.016667,"lon":145.083333},{"name":"Mount Gravatt","code":"AUMGE","country":"AU","lat":-27.533333,"lon":153.083333},{"name":"Mount Hawthorn","code":"AUMHW","country":"AU","lat":-31.916667,"lon":115.833333},{"name":"Mowbray Heights","code":"AUMOW","country":"AU","lat":-41.383333,"lon":147.133333},{"name":"Mulwala","code":"AUMWA","country":"AU","lat":-36.0,"lon":146.0},{"name":"Nericon","code":"AUNEQ","country":"AU","lat":-34.2,"lon":146.033333},{"name":"New Norfolk","code":"AUNLK","country":"AU","lat":-42.783333,"lon":147.066667},{"name":"Newtown","code":"AUVIC","country":"AU","lat":-37.7,"lon":143.65},{"name":"Nganhurra","code":"AUNGH","country":"AU","lat":-21.483333,"lon":114.0},{"name":"Nhulunbuy","code":"AUNHU","country":"AU","lat":-12.183333,"lon":136.783333},{"name":"Ningaloo Vision","code":"AUNIV","country":"AU","lat":-21.4,"lon":114.083333},{"name":"North Bridge","code":"AUNB2","country":"AU","lat":-33.8,"lon":151.216667},{"name":"Oak Flats","code":"AUOKF","country":"AU","lat":-34.55,"lon":150.816667},{"name":"Onslow","code":"AUONS","country":"AU","lat":-21.65,"lon":115.1},{"name":"Paddington","code":"AUPAG","country":"AU","lat":-33.883333,"lon":151.216667},{"name":"Padstow","code":"AUDSW","country":"AU","lat":-33.95,"lon":151.033333},{"name":"Palmerston","code":"AUPAL","country":"AU","lat":-12.466667,"lon":130.833333},{"name":"Pendle Hills","code":"AUPEN","country":"AU","lat":-33.8,"lon":150.95},{"name":"Perth","code":"AUPER","country":"AU","lat":-31.95,"lon":115.85},{"name":"Phillip Island","code":"AUPIS","country":"AU","lat":-38.483333,"lon":145.233333},{"name":"Picton","code":"AUPIC","country":"AU","lat":-34.183333,"lon":150.6},{"name":"Pleystowe","code":"AUPYT","country":"AU","lat":-21.15,"lon":149.016667},{"name":"Point Henry Pier/Melbourne","code":"AUPHP","country":"AU","lat":-38.116667,"lon":144.433333},{"name":"Port Denison","code":"AUPDI","country":"AU","lat":-29.266667,"lon":114.933333},{"name":"Port Fairy","code":"AUFRY","country":"AU","lat":-38.366667,"lon":142.233333},{"name":"Port Hacking","code":"AUT3P","country":"AU","lat":-34.066667,"lon":151.133333},{"name":"Port Kenny","code":"AUPKY","country":"AU","lat":-33.166667,"lon":134.683333},{"name":"Port Melbourne","code":"AUPOR","country":"AU","lat":-37.833333,"lon":144.933333},{"name":"Port of Brisbane","code":"AUPBN","country":"AU","lat":-27.383333,"lon":153.166667},{"name":"Port Willunga","code":"AUPTW","country":"AU","lat":-35.266667,"lon":138.45},{"name":"Prahran","code":"AUPHR","country":"AU","lat":-37.85,"lon":145.0},{"name":"Pyrenees","code":"AUPYE","country":"AU","lat":-37.083333,"lon":143.483333},{"name":"Pyrmont","code":"AUPYR","country":"AU","lat":-33.866667,"lon":151.183333},{"name":"Raffles Bay","code":"AURAF","country":"AU","lat":-11.266667,"lon":132.383333},{"name":"Revesby","code":"AUREV","country":"AU","lat":-33.95,"lon":151.0},{"name":"Reynella","code":"AURLL","country":"AU","lat":-36.1,"lon":138.533333},{"name":"Rhodes","code":"AURDS","country":"AU","lat":-33.833333,"lon":151.083333},{"name":"Robe","code":"AUROB","country":"AU","lat":-37.183333,"lon":139.75},{"name":"Rocky Point","code":"AURYP","country":"AU","lat":-33.5,"lon":123.983333},{"name":"Rosslyn Bay","code":"AURNB","country":"AU","lat":-23.166667,"lon":150.783333},{"name":"Rozelle","code":"AUROZ","country":"AU","lat":-33.85,"lon":151.166667},{"name":"Sandgate","code":"AUSGT","country":"AU","lat":-32.866667,"lon":151.7},{"name":"Scoresby","code":"AUSCY","country":"AU","lat":-37.9,"lon":145.216667},{"name":"Selby","code":"AU5CI","country":"AU","lat":-37.916667,"lon":145.383333},{"name":"Seventeen Mile Rocks/Brisbane","code":"AUSMR","country":"AU","lat":-27.55,"lon":152.95},{"name":"Shea Oak Log","code":"AUSOL","country":"AU","lat":-34.516667,"lon":138.816667},{"name":"Skardon River","code":"AUSKA","country":"AU","lat":-11.75,"lon":142.016667},{"name":"South Brisbane","code":"AUSBN","country":"AU","lat":-27.466667,"lon":153.016667},{"name":"South Trees","code":"AUSTR","country":"AU","lat":-23.9,"lon":151.283333},{"name":"Spreyton","code":"AUSPO","country":"AU","lat":-41.216667,"lon":146.35},{"name":"Surry Hills","code":"AUSUH","country":"AU","lat":-33.883333,"lon":151.216667},{"name":"Sydney","code":"AUSYD","country":"AU","lat":-33.85,"lon":151.2},{"name":"Sylvania","code":"AUSYL","country":"AU","lat":-34.016667,"lon":151.1},{"name":"Tea Gardens","code":"AUDGA","country":"AU","lat":-32.666667,"lon":152.15},{"name":"The Gurdies","code":"AUGUR","country":"AU","lat":-38.366667,"lon":145.55},{"name":"Thevenard Island","code":"AUCTH","country":"AU","lat":-21.45,"lon":114.983333},{"name":"Toombul","code":"AUTOL","country":"AU","lat":-27.4,"lon":153.05},{"name":"Tooradin","code":"AUTRD","country":"AU","lat":-38.216667,"lon":145.383333},{"name":"Toronto","code":"AUTOR","country":"AU","lat":-33.0,"lon":151.6},{"name":"Troughton Island","code":"AUTRI","country":"AU","lat":-13.75,"lon":126.133333},{"name":"Tweed Heads South","code":"AUTHS","country":"AU","lat":-28.2,"lon":153.533333},{"name":"Twowells","code":"AUDA5","country":"AU","lat":-34.6,"lon":138.5},{"name":"Ulladulla","code":"AUULA","country":"AU","lat":-35.35,"lon":150.416667},{"name":"Umbakumba","code":"AUUMB","country":"AU","lat":-13.85,"lon":136.8},{"name":"Van Gogh Terminal","code":"AUVGH","country":"AU","lat":-21.4,"lon":114.083333},{"name":"Warners Bay","code":"AUWSN","country":"AU","lat":-32.966667,"lon":151.65},{"name":"Waterways","code":"AUWTW","country":"AU","lat":-38.0,"lon":145.116667},{"name":"Webberton","code":"AUWTN","country":"AU","lat":-28.75,"lon":114.616667},{"name":"Welland","code":"AUKJH","country":"AU","lat":-34.9,"lon":138.533333},{"name":"Welshpool","code":"AUWHL","country":"AU","lat":-38.666667,"lon":146.433333},{"name":"Wentworth Point","code":"AUWWP","country":"AU","lat":-33.833333,"lon":151.066667},{"name":"Werribee","code":"AUWRB","country":"AU","lat":-37.9,"lon":144.65},{"name":"Whitsunday Island","code":"AUWSI","country":"AU","lat":-20.25,"lon":149.016667},{"name":"Wingham","code":"AUWIH","country":"AU","lat":-31.866667,"lon":152.366667},{"name":"Withnell Bay","code":"AUWNB","country":"AU","lat":-20.583333,"lon":116.783333},{"name":"Woolloomooloo","code":"AUWOO","country":"AU","lat":-33.866667,"lon":151.216667},{"name":"Woollybutt (Oil facility)","code":"AUWBT","country":"AU","lat":-21.05,"lon":114.866667},{"name":"Yarra Junction","code":"AUYRR","country":"AU","lat":-37.783333,"lon":145.616667},{"name":"Aruba","code":"AWAUA","country":"AW","lat":12.5,"lon":-69.966667},{"name":"Barcadera","code":"AWBAR","country":"AW","lat":12.483333,"lon":-69.983333},{"name":"Bushiribana","code":"AWBUS","country":"AW","lat":12.55,"lon":-69.966667},{"name":"Maarianhamina (Mariehamn)","code":"AXMHQ","country":"AX","lat":60.1,"lon":19.95},{"name":"Alat","code":"AZALA","country":"AZ","lat":39.95,"lon":49.4},{"name":"Khachmaz","code":"AZKMZ","country":"AZ","lat":41.983333,"lon":47.583333},{"name":"Qaradag","code":"AZQDG","country":"AZ","lat":40.25,"lon":49.6},{"name":"Shirvan","code":"AZSHI","country":"AZ","lat":39.916667,"lon":48.916667},{"name":"Sumqayit","code":"AZSUQ","country":"AZ","lat":40.583333,"lon":49.666667},{"name":"Cazin","code":"BA4CA","country":"BA","lat":44.966667,"lon":15.933333},{"name":"Domaljevac","code":"BADOJ","country":"BA","lat":45.05,"lon":18.566667},{"name":"Fojnica","code":"BAFOJ","country":"BA","lat":43.95,"lon":17.9},{"name":"Jablanica","code":"BAJBA","country":"BA","lat":43.65,"lon":17.75},{"name":"Maglaj","code":"BAMAG","country":"BA","lat":44.533333,"lon":18.083333},{"name":"Neum","code":"BANEM","country":"BA","lat":42.916667,"lon":17.616667},{"name":"Sanski Most","code":"BASMT","country":"BA","lat":44.766667,"lon":16.666667},{"name":"Vogosca","code":"BAVGS","country":"BA","lat":43.9,"lon":18.35},{"name":"Zvornik","code":"BAZNK","country":"BA","lat":44.383333,"lon":19.1},{"name":"Saint Michael","code":"BBSTM","country":"BB","lat":13.116667,"lon":-59.6},{"name":"Ashuganj","code":"BDASJ","country":"BD","lat":24.033333,"lon":91.016667},{"name":"Benapole","code":"BDBNP","country":"BD","lat":23.05,"lon":88.9},{"name":"Chattogram","code":"BDCGP","country":"BD","lat":22.333333,"lon":91.833333},{"name":"Munshiganj","code":"BDMUN","country":"BD","lat":23.55,"lon":90.533333},{"name":"Panchashar","code":"BDPCR","country":"BD","lat":23.566667,"lon":90.5},{"name":"Pangaon","code":"BDPGN","country":"BD","lat":23.65,"lon":90.45},{"name":"Payra Port","code":"BDPAY","country":"BD","lat":21.933333,"lon":90.266667},{"name":"Aalst","code":"BEAAB","country":"BE","lat":50.933333,"lon":4.033333},{"name":"Aalter","code":"BEAAL","country":"BE","lat":51.083333,"lon":3.45},{"name":"Adinkerke","code":"BEADK","country":"BE","lat":51.066667,"lon":2.6},{"name":"Afsnee","code":"BEAFN","country":"BE","lat":51.033333,"lon":3.666667},{"name":"Amay","code":"BEAMY","country":"BE","lat":50.55,"lon":5.316667},{"name":"Ampsin","code":"BEAPS","country":"BE","lat":50.533333,"lon":5.283333},{"name":"Andenne","code":"BEAND","country":"BE","lat":50.483333,"lon":5.1},{"name":"Angleur","code":"BEANB","country":"BE","lat":50.616667,"lon":5.583333},{"name":"Anhee","code":"BEANH","country":"BE","lat":50.316667,"lon":4.883333},{"name":"Annevoie","code":"BEAVE","country":"BE","lat":50.333333,"lon":4.833333},{"name":"Anseremme","code":"BEASR","country":"BE","lat":50.25,"lon":4.9},{"name":"Antheit","code":"BEAHE","country":"BE","lat":50.55,"lon":5.216667},{"name":"Antoing","code":"BEATO","country":"BE","lat":50.566667,"lon":3.45},{"name":"Antwerpen","code":"BEANR","country":"BE","lat":51.216667,"lon":4.416667},{"name":"Appels","code":"BEAPL","country":"BE","lat":51.033333,"lon":4.066667},{"name":"Appelterre-Eichem","code":"BEAPT","country":"BE","lat":50.816667,"lon":3.966667},{"name":"Arendonk","code":"BEAEJ","country":"BE","lat":51.316667,"lon":5.083333},{"name":"Argenteau","code":"BEAGT","country":"BE","lat":50.7,"lon":5.7},{"name":"Asper","code":"BEASP","country":"BE","lat":50.916667,"lon":3.65},{"name":"Astene","code":"BEAST","country":"BE","lat":50.983333,"lon":3.55},{"name":"Ath","code":"BEATH","country":"BE","lat":50.616667,"lon":3.766667},{"name":"Athis","code":"BE7PD","country":"BE","lat":50.366667,"lon":3.766667},{"name":"Auderghem (Oudergem)/Brussel (Bruxelles)","code":"BEODE","country":"BE","lat":50.816667,"lon":4.433333},{"name":"Auvelais","code":"BEAVS","country":"BE","lat":50.45,"lon":4.616667},{"name":"Avelgem","code":"BEAVL","country":"BE","lat":50.766667,"lon":3.433333},{"name":"Awirs","code":"BEW5R","country":"BE","lat":50.6,"lon":5.4},{"name":"Baasrode","code":"BEBSR","country":"BE","lat":51.033333,"lon":4.166667},{"name":"Baillonville","code":"BEBAI","country":"BE","lat":50.283333,"lon":5.333333},{"name":"Balen","code":"BEBLE","country":"BE","lat":51.166667,"lon":5.15},{"name":"Balgerhoek","code":"BEBGK","country":"BE","lat":51.2,"lon":3.516667},{"name":"Bas-Oha","code":"BEBOA","country":"BE","lat":50.516667,"lon":5.183333},{"name":"Battel","code":"BEBAT","country":"BE","lat":51.05,"lon":4.45},{"name":"Baudour","code":"BEBDU","country":"BE","lat":50.483333,"lon":3.816667},{"name":"Bazel","code":"BEBAZ","country":"BE","lat":51.15,"lon":4.3},{"name":"Beernem","code":"BEBRM","country":"BE","lat":51.15,"lon":3.333333},{"name":"Beerse","code":"BEBER","country":"BE","lat":51.316667,"lon":4.866667},{"name":"Bellecourt","code":"BEBCR","country":"BE","lat":50.483333,"lon":4.25},{"name":"Beloeil","code":"BEBLO","country":"BE","lat":50.55,"lon":3.716667},{"name":"Ben-Ahin","code":"BEBAN","country":"BE","lat":50.516667,"lon":5.166667},{"name":"Berchem","code":"BEBCM","country":"BE","lat":50.783333,"lon":3.5},{"name":"Berendrecht","code":"BEBRT","country":"BE","lat":51.333333,"lon":4.316667},{"name":"Beringen","code":"BERIN","country":"BE","lat":51.05,"lon":5.216667},{"name":"Berneau","code":"BEBNU","country":"BE","lat":50.75,"lon":5.733333},{"name":"Bertrix","code":"BEBTX","country":"BE","lat":49.85,"lon":5.25},{"name":"Bever","code":"BEBVE","country":"BE","lat":50.716667,"lon":3.933333},{"name":"Beverlo","code":"BEBVO","country":"BE","lat":51.083333,"lon":5.2},{"name":"Bissegem","code":"BEBSE","country":"BE","lat":50.816667,"lon":3.216667},{"name":"Blankenberge","code":"BEBBG","country":"BE","lat":51.316667,"lon":3.133333},{"name":"Blaregnies","code":"BEWHT","country":"BE","lat":50.35,"lon":3.883333},{"name":"Blaton","code":"BEBLT","country":"BE","lat":50.5,"lon":3.65},{"name":"Bleharies","code":"BEBHR","country":"BE","lat":50.516667,"lon":3.4},{"name":"Bocholt","code":"BEBOC","country":"BE","lat":51.166667,"lon":5.583333},{"name":"Boekhoute","code":"BEBHE","country":"BE","lat":51.25,"lon":3.716667},{"name":"Boom","code":"BEBOM","country":"BE","lat":51.083333,"lon":4.366667},{"name":"Boorsem","code":"BEBOO","country":"BE","lat":50.933333,"lon":5.716667},{"name":"Boortmeerbeek","code":"BEBMB","country":"BE","lat":50.983333,"lon":4.566667},{"name":"Bornem","code":"BEBON","country":"BE","lat":51.1,"lon":4.233333},{"name":"Bossuit","code":"BEBSU","country":"BE","lat":50.75,"lon":3.4},{"name":"Bougnies","code":"BEBO2","country":"BE","lat":50.383333,"lon":3.933333},{"name":"Bouvignes-sur-Meuse","code":"BEBVM","country":"BE","lat":50.266667,"lon":4.9},{"name":"Bree","code":"BEBRE","country":"BE","lat":51.133333,"lon":5.6},{"name":"Briegden","code":"BEBGN","country":"BE","lat":50.866667,"lon":5.616667},{"name":"Brugge (Bruges)","code":"BEBGS","country":"BE","lat":51.216667,"lon":3.233333},{"name":"Brussel (Bruxelles)","code":"BEBRU","country":"BE","lat":50.833333,"lon":4.333333},{"name":"Bruyelle","code":"BEBRY","country":"BE","lat":50.55,"lon":3.416667},{"name":"Buggenhout","code":"BEBHU","country":"BE","lat":51.016667,"lon":4.2},{"name":"Burcht","code":"BEBUD","country":"BE","lat":51.2,"lon":4.35},{"name":"Calonne","code":"BECLN","country":"BE","lat":50.566667,"lon":3.433333},{"name":"Canne (Kanne)","code":"BEKAN","country":"BE","lat":50.816667,"lon":5.666667},{"name":"Charleroi","code":"BECRL","country":"BE","lat":50.416667,"lon":4.433333},{"name":"Chatelineau","code":"BECTL","country":"BE","lat":50.416667,"lon":4.516667},{"name":"Cheratte","code":"BECRA","country":"BE","lat":50.683333,"lon":5.666667},{"name":"Chercq","code":"BECRQ","country":"BE","lat":50.583333,"lon":3.4},{"name":"Chertal","code":"BECTA","country":"BE","lat":50.683333,"lon":5.666667},{"name":"Clabecq","code":"BECBQ","country":"BE","lat":50.683333,"lon":4.216667},{"name":"Comines","code":"BECOM","country":"BE","lat":50.766667,"lon":2.983333},{"name":"Couillet","code":"BECOU","country":"BE","lat":50.383333,"lon":4.45},{"name":"Courcelles","code":"BECCS","country":"BE","lat":50.466667,"lon":4.366667},{"name":"Daknam","code":"BEDKN","country":"BE","lat":51.133333,"lon":3.983333},{"name":"Dampremy","code":"BEDPY","country":"BE","lat":50.416667,"lon":4.4},{"name":"De Pinte","code":"BEDPE","country":"BE","lat":51.0,"lon":3.65},{"name":"Deinze","code":"BEDEZ","country":"BE","lat":50.983333,"lon":3.533333},{"name":"Denderbelle","code":"BEDNB","country":"BE","lat":51.0,"lon":4.083333},{"name":"Denderleeuw","code":"BEDRW","country":"BE","lat":50.883333,"lon":4.066667},{"name":"Dendermonde","code":"BEDDR","country":"BE","lat":51.033333,"lon":4.116667},{"name":"Dessel","code":"BEDSE","country":"BE","lat":51.233333,"lon":5.116667},{"name":"Desselgem","code":"BEDSL","country":"BE","lat":50.883333,"lon":3.35},{"name":"Deurne","code":"BEDEG","country":"BE","lat":51.216667,"lon":4.466667},{"name":"Deux-Acren","code":"BEDXN","country":"BE","lat":50.733333,"lon":3.85},{"name":"Diepenbeek","code":"BEDPK","country":"BE","lat":50.9,"lon":5.4},{"name":"Diksmuide","code":"BEDIK","country":"BE","lat":51.033333,"lon":2.866667},{"name":"Dilsen","code":"BEDLS","country":"BE","lat":51.033333,"lon":5.733333},{"name":"Dinant","code":"BEDIA","country":"BE","lat":50.266667,"lon":4.916667},{"name":"Doel","code":"BEDEL","country":"BE","lat":51.316667,"lon":4.266667},{"name":"Doornik (Tournai)","code":"BETRN","country":"BE","lat":50.6,"lon":3.383333},{"name":"Drongen","code":"BEDGN","country":"BE","lat":51.05,"lon":3.666667},{"name":"Duffel","code":"BEDUF","country":"BE","lat":51.1,"lon":4.516667},{"name":"Eben-Emael","code":"BE9IR","country":"BE","lat":50.8,"lon":5.666667},{"name":"Eeklo","code":"BEEEK","country":"BE","lat":51.183333,"lon":3.566667},{"name":"Eigenbilzen","code":"BEEBZ","country":"BE","lat":50.866667,"lon":5.583333},{"name":"Eindhout","code":"BEEHT","country":"BE","lat":51.1,"lon":5.0},{"name":"Eine","code":"BEEIN","country":"BE","lat":50.866667,"lon":3.616667},{"name":"Eisden","code":"BEESD","country":"BE","lat":50.983333,"lon":5.716667},{"name":"Eke","code":"BEEQE","country":"BE","lat":50.95,"lon":3.633333},{"name":"Ekeren","code":"BEEKE","country":"BE","lat":51.283333,"lon":4.416667},{"name":"Eksaarde","code":"BEEKS","country":"BE","lat":51.15,"lon":3.966667},{"name":"Emblem","code":"BEEBM","country":"BE","lat":51.166667,"lon":4.6},{"name":"Ename","code":"BEEAM","country":"BE","lat":50.85,"lon":3.633333},{"name":"Engis","code":"BEENG","country":"BE","lat":50.583333,"lon":5.416667},{"name":"Erquelinnes","code":"BEREQ","country":"BE","lat":50.3,"lon":4.116667},{"name":"Ertvelde","code":"BEERE","country":"BE","lat":51.183333,"lon":3.75},{"name":"Escanaffles","code":"BEEFS","country":"BE","lat":50.75,"lon":3.433333},{"name":"Espierres (Spiere)","code":"BESPI","country":"BE","lat":50.716667,"lon":3.35},{"name":"Esquelmes","code":"BEEQM","country":"BE","lat":50.666667,"lon":3.333333},{"name":"Estaimpuis","code":"BEEMP","country":"BE","lat":50.7,"lon":3.25},{"name":"Ethe","code":"BEEET","country":"BE","lat":49.583333,"lon":5.583333},{"name":"Evergem","code":"BEEVM","country":"BE","lat":51.116667,"lon":3.7},{"name":"Farciennes","code":"BEFCS","country":"BE","lat":50.433333,"lon":4.55},{"name":"Feluy","code":"BEFEY","country":"BE","lat":50.566667,"lon":4.25},{"name":"Flawinne","code":"BEFWI","country":"BE","lat":50.466667,"lon":4.8},{"name":"Flemalle","code":"BEFMA","country":"BE","lat":50.6,"lon":5.466667},{"name":"Flone","code":"BEFLN","country":"BE","lat":50.566667,"lon":5.333333},{"name":"Floreffe","code":"BEFLO","country":"BE","lat":50.433333,"lon":4.783333},{"name":"Floriffoux","code":"BEFFX","country":"BE","lat":50.45,"lon":4.766667},{"name":"Fontaine-Valmont","code":"BEFVT","country":"BE","lat":50.316667,"lon":4.2},{"name":"Fortem","code":"BEFRM","country":"BE","lat":51.016667,"lon":2.733333},{"name":"Franiere","code":"BEFNR","country":"BE","lat":50.433333,"lon":4.733333},{"name":"Gavere","code":"BEGVR","country":"BE","lat":50.933333,"lon":3.666667},{"name":"Geel","code":"BEGEL","country":"BE","lat":51.166667,"lon":5.0},{"name":"Gellik","code":"BEGLK","country":"BE","lat":50.883333,"lon":5.6},{"name":"Genenbos","code":"BEGBH","country":"BE","lat":51.016667,"lon":5.233333},{"name":"Genk","code":"BEGNK","country":"BE","lat":50.966667,"lon":5.5},{"name":"Gent (Ghent)","code":"BEGNE","country":"BE","lat":51.05,"lon":3.716667},{"name":"Gentbrugge","code":"BEGBU","country":"BE","lat":51.05,"lon":3.75},{"name":"Geraardsbergen","code":"BEGEA","country":"BE","lat":50.766667,"lon":3.866667},{"name":"Ghlin","code":"BEGHL","country":"BE","lat":50.466667,"lon":3.883333},{"name":"Godinne","code":"BEGDN","country":"BE","lat":50.35,"lon":4.866667},{"name":"Godsheide","code":"BEGDE","country":"BE","lat":50.933333,"lon":5.383333},{"name":"Gosselies","code":"BEGOS","country":"BE","lat":50.466667,"lon":4.416667},{"name":"Grembergen","code":"BEGGM","country":"BE","lat":51.05,"lon":4.1},{"name":"Grimbergen","code":"BEGRB","country":"BE","lat":50.933333,"lon":4.383333},{"name":"Grobbendonk","code":"BEGBB","country":"BE","lat":51.2,"lon":4.716667},{"name":"Groot Bijgaarden","code":"BEGRO","country":"BE","lat":50.866667,"lon":4.266667},{"name":"Haccourt","code":"BEHCT","country":"BE","lat":50.733333,"lon":5.666667},{"name":"Halle","code":"BEHFB","country":"BE","lat":50.733333,"lon":4.233333},{"name":"Halluin","code":"BEHLU","country":"BE","lat":50.783333,"lon":3.133333},{"name":"Hamme","code":"BEHMM","country":"BE","lat":51.083333,"lon":3.533333},{"name":"Hamsehoeven","code":"BEHAM","country":"BE","lat":51.116667,"lon":5.183333},{"name":"Ham-sur-Sambre","code":"BEHMB","country":"BE","lat":50.433333,"lon":4.666667},{"name":"Handzame","code":"BEHNA","country":"BE","lat":51.016667,"lon":3.0},{"name":"Hansbeke","code":"BEHBE","country":"BE","lat":51.066667,"lon":3.533333},{"name":"Harchies","code":"BEHCS","country":"BE","lat":50.483333,"lon":3.683333},{"name":"Harelbeke","code":"BEHEJ","country":"BE","lat":50.85,"lon":3.3},{"name":"Haren","code":"BEHAR","country":"BE","lat":50.883333,"lon":4.416667},{"name":"Hasselt","code":"BEHSS","country":"BE","lat":50.933333,"lon":5.333333},{"name":"Hastiere-par-dela","code":"BEHPD","country":"BE","lat":50.216667,"lon":4.833333},{"name":"Hautrage","code":"BEHTJ","country":"BE","lat":50.483333,"lon":3.75},{"name":"Havre","code":"BEHRE","country":"BE","lat":50.466667,"lon":4.033333},{"name":"Heer","code":"BEHEE","country":"BE","lat":50.166667,"lon":4.833333},{"name":"Heindonk","code":"BEHDK","country":"BE","lat":51.066667,"lon":4.4},{"name":"Helkijn","code":"BEHKN","country":"BE","lat":50.733333,"lon":3.383333},{"name":"Hemiksem","code":"BEHEX","country":"BE","lat":51.15,"lon":4.35},{"name":"Hensies","code":"BEHNS","country":"BE","lat":50.433333,"lon":3.666667},{"name":"Herdersem","code":"BEHYB","country":"BE","lat":50.966667,"lon":4.066667},{"name":"Herent","code":"BEHET","country":"BE","lat":51.2,"lon":5.45},{"name":"Herentals","code":"BEHER","country":"BE","lat":51.183333,"lon":4.833333},{"name":"Hermalle-sous-Huy","code":"BEHMH","country":"BE","lat":50.55,"lon":5.366667},{"name":"Hermeton-sur-Meuse","code":"BEHTM","country":"BE","lat":50.2,"lon":4.816667},{"name":"Herstal","code":"BEHRS","country":"BE","lat":50.666667,"lon":5.633333},{"name":"Hever","code":"BEHVE","country":"BE","lat":51.0,"lon":4.55},{"name":"Hoboken","code":"BEHBN","country":"BE","lat":51.166667,"lon":4.35},{"name":"Hofstade","code":"BEHSD","country":"BE","lat":50.966667,"lon":4.033333},{"name":"Hollain","code":"BEHOL","country":"BE","lat":50.533333,"lon":3.416667},{"name":"Houdeng-Aimeries","code":"BEHGA","country":"BE","lat":50.483333,"lon":4.133333},{"name":"Houdeng-Goegnies","code":"BEHGG","country":"BE","lat":50.483333,"lon":4.15},{"name":"Hourpes","code":"BEHRP","country":"BE","lat":50.366667,"lon":4.283333},{"name":"Houx","code":"BEHUX","country":"BE","lat":50.3,"lon":4.9},{"name":"Humbeek","code":"BEHUM","country":"BE","lat":50.966667,"lon":4.383333},{"name":"Huy","code":"BEHUY","country":"BE","lat":50.516667,"lon":5.233333},{"name":"Ingelmunster","code":"BEIGE","country":"BE","lat":50.916667,"lon":3.25},{"name":"Isieres","code":"BEISR","country":"BE","lat":50.666667,"lon":3.816667},{"name":"Itter (Ittre)","code":"BEITR","country":"BE","lat":50.65,"lon":4.266667},{"name":"Ivoz-Ramet","code":"BEYRT","country":"BE","lat":50.583333,"lon":5.433333},{"name":"Izegem","code":"BEIZG","country":"BE","lat":50.916667,"lon":3.2},{"name":"Jambes","code":"BEJAM","country":"BE","lat":50.45,"lon":4.883333},{"name":"Java","code":"BEJAV","country":"BE","lat":50.516667,"lon":5.15},{"name":"Jemeppe-sur-Sambre","code":"BEJPS","country":"BE","lat":50.466667,"lon":4.666667},{"name":"Jupille-sur-Meuse","code":"BEJAK","country":"BE","lat":50.65,"lon":5.633333},{"name":"Kachtem","code":"BEKCT","country":"BE","lat":50.933333,"lon":3.183333},{"name":"Kain","code":"BEKAI","country":"BE","lat":50.633333,"lon":3.366667},{"name":"Kallo","code":"BEKOU","country":"BE","lat":51.25,"lon":4.283333},{"name":"Kampenhout","code":"BEKMH","country":"BE","lat":50.95,"lon":4.55},{"name":"Kapelle-op-den-Bos","code":"BEKPB","country":"BE","lat":51.016667,"lon":4.366667},{"name":"Kaulille","code":"BEKLE","country":"BE","lat":51.183333,"lon":5.516667},{"name":"Kerkhove","code":"BEKHN","country":"BE","lat":50.8,"lon":3.5},{"name":"Kessenich","code":"BEKSN","country":"BE","lat":51.15,"lon":5.816667},{"name":"Kieldrecht","code":"BEKDE","country":"BE","lat":51.283333,"lon":4.166667},{"name":"Kinrooi","code":"BEKRO","country":"BE","lat":51.15,"lon":5.75},{"name":"Klein Veerle","code":"BEKVE","country":"BE","lat":51.333333,"lon":4.666667},{"name":"Kluisbergen","code":"BEKSR","country":"BE","lat":50.783333,"lon":3.516667},{"name":"Knesselaere","code":"BEKNS","country":"BE","lat":51.133333,"lon":3.416667},{"name":"Kortrijk","code":"BEKJK","country":"BE","lat":50.833333,"lon":3.266667},{"name":"Kruibeke","code":"BEKEK","country":"BE","lat":51.166667,"lon":4.316667},{"name":"Kuringen","code":"BEKRN","country":"BE","lat":50.95,"lon":5.3},{"name":"Kuurne","code":"BEKUU","country":"BE","lat":50.85,"lon":3.283333},{"name":"Kwaadmechelen","code":"BEKWA","country":"BE","lat":51.1,"lon":5.133333},{"name":"La Roche-en-Ardenne","code":"BERAR","country":"BE","lat":50.183333,"lon":5.583333},{"name":"Labuissiere","code":"BEBSI","country":"BE","lat":50.316667,"lon":4.166667},{"name":"Ladeuze","code":"BELUZ","country":"BE","lat":50.566667,"lon":3.766667},{"name":"Lanaken","code":"BELAN","country":"BE","lat":50.883333,"lon":5.65},{"name":"Lanaye (Ternaaien)","code":"BELNY","country":"BE","lat":50.783333,"lon":5.683333},{"name":"Landegem","code":"BELGM","country":"BE","lat":51.05,"lon":3.566667},{"name":"Landelies","code":"BELDS","country":"BE","lat":50.383333,"lon":4.35},{"name":"Langerbrugge","code":"BELGB","country":"BE","lat":51.116667,"lon":3.733333},{"name":"Langerlo","code":"BELGO","country":"BE","lat":50.95,"lon":5.5},{"name":"Lanklaar","code":"BELNK","country":"BE","lat":51.016667,"lon":5.716667},{"name":"Lanquesaint","code":"BELQA","country":"BE","lat":50.65,"lon":3.8},{"name":"Laplaigne","code":"BELPI","country":"BE","lat":50.516667,"lon":3.433333},{"name":"Lauwe","code":"BELAW","country":"BE","lat":50.8,"lon":3.183333},{"name":"Le Roeulx","code":"BEROU","country":"BE","lat":50.5,"lon":4.1},{"name":"Ledeberg","code":"BELRG","country":"BE","lat":51.033333,"lon":3.75},{"name":"Leffinge","code":"BELFE","country":"BE","lat":51.166667,"lon":2.883333},{"name":"Lembeek","code":"BELBE","country":"BE","lat":50.716667,"lon":4.216667},{"name":"Leopoldsburg","code":"BELPG","country":"BE","lat":51.116667,"lon":5.25},{"name":"Lessines","code":"BELES","country":"BE","lat":50.716667,"lon":3.833333},{"name":"Leuven","code":"BELEU","country":"BE","lat":50.883333,"lon":4.7},{"name":"Liefkenshoek","code":"BELHK","country":"BE","lat":51.016667,"lon":3.883333},{"name":"Liege","code":"BELGG","country":"BE","lat":50.633333,"lon":5.566667},{"name":"Lier","code":"BELIE","country":"BE","lat":51.133333,"lon":4.566667},{"name":"Lillo","code":"BELIL","country":"BE","lat":51.3,"lon":4.3},{"name":"Lissewege","code":"BELSG","country":"BE","lat":51.3,"lon":3.183333},{"name":"Lixhe","code":"BELIX","country":"BE","lat":50.75,"lon":5.666667},{"name":"Lobbes","code":"BELBS","country":"BE","lat":50.35,"lon":4.25},{"name":"Lokeren","code":"BELOK","country":"BE","lat":51.1,"lon":3.983333},{"name":"Lommel","code":"BELML","country":"BE","lat":51.233333,"lon":5.3},{"name":"Lot","code":"BELOT","country":"BE","lat":50.766667,"lon":4.266667},{"name":"Lozen","code":"BELOZ","country":"BE","lat":51.2,"lon":5.566667},{"name":"Lummen","code":"BELUM","country":"BE","lat":50.983333,"lon":5.2},{"name":"Lustin","code":"BELUI","country":"BE","lat":50.383333,"lon":4.9},{"name":"Maaseik","code":"BEMSK","country":"BE","lat":51.1,"lon":5.8},{"name":"Maasmechelen","code":"BEMMN","country":"BE","lat":50.816667,"lon":5.666667},{"name":"Maffle","code":"BEMFF","country":"BE","lat":50.616667,"lon":3.8},{"name":"Maisieres","code":"BEMSR","country":"BE","lat":50.483333,"lon":3.95},{"name":"Manage","code":"BEMAN","country":"BE","lat":50.5,"lon":4.216667},{"name":"Maransart","code":"BEWBR","country":"BE","lat":50.666667,"lon":4.45},{"name":"Marche-les-Dames","code":"BEMLD","country":"BE","lat":50.483333,"lon":4.966667},{"name":"Marchienne-au-Pont","code":"BEMAP","country":"BE","lat":50.4,"lon":4.383333},{"name":"Marly","code":"BEMLY","country":"BE","lat":50.883333,"lon":4.383333},{"name":"Massenhoven","code":"BEMHN","country":"BE","lat":51.2,"lon":4.616667},{"name":"Maubray","code":"BEMBY","country":"BE","lat":50.55,"lon":3.5},{"name":"Maurage","code":"BEMRG","country":"BE","lat":50.45,"lon":4.083333},{"name":"Mechelen","code":"BEECH","country":"BE","lat":51.033333,"lon":4.466667},{"name":"Meer","code":"BEMEE","country":"BE","lat":51.45,"lon":4.733333},{"name":"Meerhout","code":"BEMEH","country":"BE","lat":51.133333,"lon":5.083333},{"name":"Meigem","code":"BEMGM","country":"BE","lat":51.016667,"lon":3.533333},{"name":"Meilegem","code":"BEMEG","country":"BE","lat":50.9,"lon":3.7},{"name":"Melle","code":"BEMEL","country":"BE","lat":51.0,"lon":3.8},{"name":"Melsen","code":"BEELS","country":"BE","lat":50.966667,"lon":3.7},{"name":"Menen","code":"BEMEN","country":"BE","lat":50.8,"lon":3.116667},{"name":"Merelbeke","code":"BEMRL","country":"BE","lat":51.0,"lon":3.75},{"name":"Merendree","code":"BEMRD","country":"BE","lat":51.083333,"lon":3.583333},{"name":"Merkem","code":"BEMRM","country":"BE","lat":50.95,"lon":2.85},{"name":"Merksem","code":"BEMRK","country":"BE","lat":51.25,"lon":4.45},{"name":"Mespelare","code":"BEMSP","country":"BE","lat":51.0,"lon":4.066667},{"name":"Moen","code":"BEMNO","country":"BE","lat":50.766667,"lon":3.4},{"name":"Moerbeke-Waas","code":"BEMEW","country":"BE","lat":51.166667,"lon":3.933333},{"name":"Moerbrugge","code":"BEMRB","country":"BE","lat":51.166667,"lon":3.266667},{"name":"Moerzeke","code":"BEMZK","country":"BE","lat":51.066667,"lon":4.15},{"name":"Moignelee","code":"BEMGN","country":"BE","lat":50.45,"lon":4.583333},{"name":"Mol","code":"BEMLO","country":"BE","lat":51.183333,"lon":5.1},{"name":"Molenbeek-Saint-Jean (Sint-Jans-Molenbeek)/Brussel (Bruxelles)","code":"BEMSJ","country":"BE","lat":50.85,"lon":4.316667},{"name":"Monceau-sur-Sambre","code":"BEMSS","country":"BE","lat":50.416667,"lon":4.366667},{"name":"Mons","code":"BEMQS","country":"BE","lat":50.45,"lon":3.933333},{"name":"Monsin","code":"BEMSI","country":"BE","lat":50.666667,"lon":5.633333},{"name":"Montignies-sur-Sambre","code":"BEMGS","country":"BE","lat":50.4,"lon":4.5},{"name":"Mornimont","code":"BEMRO","country":"BE","lat":50.45,"lon":4.7},{"name":"Muizen","code":"BEMUI","country":"BE","lat":51.016667,"lon":4.516667},{"name":"Nameche","code":"BENMC","country":"BE","lat":50.466667,"lon":5.0},{"name":"Namur","code":"BENAM","country":"BE","lat":50.466667,"lon":4.866667},{"name":"Neder-Over-Heembeek","code":"BENVH","country":"BE","lat":50.9,"lon":4.383333},{"name":"Neerharen","code":"BENHA","country":"BE","lat":50.916667,"lon":5.683333},{"name":"Neeroeteren","code":"BENRT","country":"BE","lat":51.083333,"lon":5.7},{"name":"Neerpelt","code":"BENRP","country":"BE","lat":51.216667,"lon":5.416667},{"name":"Neffe","code":"BENFE","country":"BE","lat":50.233333,"lon":4.916667},{"name":"Neuville-sous-Huy","code":"BENHY","country":"BE","lat":50.533333,"lon":5.283333},{"name":"Nevele","code":"BENVL","country":"BE","lat":51.033333,"lon":3.55},{"name":"Niel","code":"BENIL","country":"BE","lat":51.116667,"lon":4.333333},{"name":"Nieuwpoort","code":"BENIE","country":"BE","lat":51.133333,"lon":2.75},{"name":"Nijlen","code":"BENYL","country":"BE","lat":51.166667,"lon":4.65},{"name":"Nimy","code":"BENBA","country":"BE","lat":50.466667,"lon":3.95},{"name":"Ninove","code":"BENNV","country":"BE","lat":50.833333,"lon":4.016667},{"name":"Noeveren","code":"BENVN","country":"BE","lat":51.1,"lon":4.35},{"name":"Obourg","code":"BEOBR","country":"BE","lat":50.466667,"lon":4.0},{"name":"Oelegem","code":"BEOEL","country":"BE","lat":51.216667,"lon":4.583333},{"name":"Oeselgem","code":"BEOSG","country":"BE","lat":50.933333,"lon":3.433333},{"name":"Oevel","code":"BEOEV","country":"BE","lat":51.133333,"lon":4.883333},{"name":"Oisquercq","code":"BEOQC","country":"BE","lat":50.666667,"lon":4.216667},{"name":"Okegem","code":"BEOKG","country":"BE","lat":50.85,"lon":4.05},{"name":"Olen","code":"BEOLN","country":"BE","lat":51.15,"lon":4.85},{"name":"Ollignies","code":"BEOGS","country":"BE","lat":50.683333,"lon":3.85},{"name":"Ombret-Rawsa","code":"BEOBT","country":"BE","lat":50.55,"lon":5.333333},{"name":"Onkerzele","code":"BEOZL","country":"BE","lat":50.783333,"lon":3.9},{"name":"Ooigem","code":"BEOOG","country":"BE","lat":50.883333,"lon":3.333333},{"name":"Oostende (Ostend)","code":"BEOST","country":"BE","lat":51.2,"lon":2.916667},{"name":"Oosterlo","code":"BEOTL","country":"BE","lat":51.116667,"lon":4.966667},{"name":"Oostkamp","code":"BEOKP","country":"BE","lat":51.15,"lon":3.233333},{"name":"Oostkerke","code":"BEOTK","country":"BE","lat":51.283333,"lon":3.283333},{"name":"Ophoven","code":"BEOHN","country":"BE","lat":51.116667,"lon":5.8},{"name":"Opitter","code":"BEOPI","country":"BE","lat":51.116667,"lon":5.65},{"name":"Orroir","code":"BEORR","country":"BE","lat":50.75,"lon":3.466667},{"name":"Oudenaarde","code":"BEOUD","country":"BE","lat":50.85,"lon":3.6},{"name":"Oudenburg","code":"BEOBG","country":"BE","lat":51.183333,"lon":3.0},{"name":"Oud-Turnhout","code":"BEOTH","country":"BE","lat":51.316667,"lon":4.983333},{"name":"Ougree","code":"BEOUG","country":"BE","lat":50.6,"lon":5.533333},{"name":"Oupeye","code":"BEOPY","country":"BE","lat":50.7,"lon":5.65},{"name":"Overboelare","code":"BEOLE","country":"BE","lat":50.75,"lon":3.85},{"name":"Overpelt","code":"BEOVE","country":"BE","lat":51.216667,"lon":5.416667},{"name":"Paal","code":"BEPAL","country":"BE","lat":51.033333,"lon":5.183333},{"name":"Pamel","code":"BEPML","country":"BE","lat":50.833333,"lon":4.066667},{"name":"Pecq","code":"BEPCQ","country":"BE","lat":50.683333,"lon":3.333333},{"name":"Peronnes","code":"BEPES","country":"BE","lat":50.55,"lon":3.433333},{"name":"Peronnes/Binche","code":"BEPLB","country":"BE","lat":50.433333,"lon":4.133333},{"name":"Petit-Lanaye","code":"BEPLY","country":"BE","lat":50.783333,"lon":5.683333},{"name":"Pijp Tabak","code":"BEPTP","country":"BE","lat":51.233333,"lon":4.35},{"name":"Pollinkhove","code":"BEPKH","country":"BE","lat":50.966667,"lon":2.733333},{"name":"Pommeroeul","code":"BEPME","country":"BE","lat":50.45,"lon":3.7},{"name":"Pont-a-Celles","code":"BEPCL","country":"BE","lat":50.5,"lon":4.35},{"name":"Pont-de-Loup","code":"BEPLO","country":"BE","lat":50.416667,"lon":4.533333},{"name":"Pottes","code":"BEPTS","country":"BE","lat":50.733333,"lon":3.4},{"name":"Profondeville","code":"BEPFE","country":"BE","lat":50.383333,"lon":4.866667},{"name":"Puurs","code":"BEPUU","country":"BE","lat":51.083333,"lon":4.283333},{"name":"Ramegnies-Chin","code":"BERCI","country":"BE","lat":50.65,"lon":3.316667},{"name":"Ravels","code":"BERVS","country":"BE","lat":51.366667,"lon":5.0},{"name":"Rebaix","code":"BERBX","country":"BE","lat":50.65,"lon":3.783333},{"name":"Rekkem","code":"BEREK","country":"BE","lat":50.833333,"lon":3.616667},{"name":"Reninge","code":"BERGE","country":"BE","lat":50.95,"lon":2.783333},{"name":"Renory","code":"BENRY","country":"BE","lat":50.6,"lon":5.55},{"name":"Retie","code":"BERTI","country":"BE","lat":51.266667,"lon":5.066667},{"name":"Richelle","code":"BERCL","country":"BE","lat":50.716667,"lon":5.683333},{"name":"Rieme","code":"BERIE","country":"BE","lat":51.166667,"lon":3.783333},{"name":"Rijkevorsel","code":"BERIJ","country":"BE","lat":51.35,"lon":4.766667},{"name":"Riviere","code":"BERVE","country":"BE","lat":50.35,"lon":4.866667},{"name":"Rocourt","code":"BERJT","country":"BE","lat":50.683333,"lon":5.55},{"name":"Roesbrugge","code":"BERBE","country":"BE","lat":50.916667,"lon":2.616667},{"name":"Roesbrugge-Haringe","code":"BERHA","country":"BE","lat":50.916667,"lon":2.616667},{"name":"Roeselare","code":"BEROE","country":"BE","lat":50.95,"lon":3.133333},{"name":"Ronquieres","code":"BERQS","country":"BE","lat":50.6,"lon":4.216667},{"name":"Roselies","code":"BEROS","country":"BE","lat":50.433333,"lon":4.583333},{"name":"Roucourt","code":"BERCT","country":"BE","lat":50.533333,"lon":3.583333},{"name":"Roux","code":"BEROX","country":"BE","lat":50.433333,"lon":4.383333},{"name":"Ruien","code":"BERUE","country":"BE","lat":50.766667,"lon":3.483333},{"name":"Ruisbroek","code":"BESVG","country":"BE","lat":51.083333,"lon":4.333333},{"name":"Ruisbroek","code":"BERUI","country":"BE","lat":50.783333,"lon":4.3},{"name":"Rumst","code":"BERUS","country":"BE","lat":51.083333,"lon":4.416667},{"name":"Rupelmonde","code":"BERPM","country":"BE","lat":51.133333,"lon":4.283333},{"name":"Saint-Ghislain","code":"BEGHI","country":"BE","lat":50.45,"lon":3.816667},{"name":"Salles","code":"BESLS","country":"BE","lat":50.05,"lon":4.25},{"name":"Samson","code":"BESSO","country":"BE","lat":50.466667,"lon":4.983333},{"name":"Sankt Vith","code":"BEVIT","country":"BE","lat":50.666667,"lon":6.7},{"name":"Sas-Slijkens","code":"BESLJ","country":"BE","lat":51.216667,"lon":2.95},{"name":"Scheepsdale","code":"BESPE","country":"BE","lat":51.216667,"lon":3.2},{"name":"Schelderode","code":"BESHR","country":"BE","lat":50.966667,"lon":3.716667},{"name":"Schelle","code":"BESHL","country":"BE","lat":51.133333,"lon":4.333333},{"name":"Schellebelle","code":"BESHB","country":"BE","lat":51.016667,"lon":3.933333},{"name":"Schilde","code":"BESCE","country":"BE","lat":51.233333,"lon":4.566667},{"name":"Schoonaarde","code":"BESNE","country":"BE","lat":51.0,"lon":4.016667},{"name":"Schoten","code":"BESCT","country":"BE","lat":51.25,"lon":4.5},{"name":"Sclaigneaux","code":"BESGX","country":"BE","lat":50.5,"lon":5.0},{"name":"Sclayn","code":"BESLY","country":"BE","lat":50.483333,"lon":5.033333},{"name":"Sclessin","code":"BESSN","country":"BE","lat":50.616667,"lon":5.55},{"name":"Seilles","code":"BESES","country":"BE","lat":50.5,"lon":5.066667},{"name":"Seneffe","code":"BESEN","country":"BE","lat":50.516667,"lon":4.25},{"name":"Seraing","code":"BEZER","country":"BE","lat":50.6,"lon":5.483333},{"name":"Sint-Amands","code":"BESAS","country":"BE","lat":51.05,"lon":4.2},{"name":"Sint-Andries","code":"BESAN","country":"BE","lat":51.183333,"lon":3.183333},{"name":"Sint-Huibrechts-Lille","code":"BEHSL","country":"BE","lat":51.216667,"lon":5.483333},{"name":"Sint-Jacobs-Kapelle","code":"BEJKP","country":"BE","lat":51.0,"lon":2.816667},{"name":"Sint-Job-in-'t-Goor","code":"BESJG","country":"BE","lat":51.3,"lon":4.566667},{"name":"Sint-Joris","code":"BESJR","country":"BE","lat":51.133333,"lon":2.766667},{"name":"Sint-Jozef-Olen","code":"BESJO","country":"BE","lat":51.183333,"lon":4.883333},{"name":"Sint-Lenaarts","code":"BESLN","country":"BE","lat":51.35,"lon":4.683333},{"name":"Sint-Martens-Latem","code":"BESML","country":"BE","lat":51.016667,"lon":3.633333},{"name":"Snaaskerke","code":"BESSK","country":"BE","lat":51.183333,"lon":2.933333},{"name":"Solre-sur-Sambre","code":"BESSB","country":"BE","lat":50.3,"lon":4.133333},{"name":"Soudromont","code":"BESDT","country":"BE","lat":50.516667,"lon":4.25},{"name":"Stambruges","code":"BESBG","country":"BE","lat":50.5,"lon":3.716667},{"name":"Stasegem","code":"BESGM","country":"BE","lat":50.833333,"lon":3.3},{"name":"Statte","code":"BESTT","country":"BE","lat":50.533333,"lon":5.216667},{"name":"Steenbrugge","code":"BESBE","country":"BE","lat":51.183333,"lon":3.233333},{"name":"Steendorp","code":"BESDP","country":"BE","lat":51.133333,"lon":4.266667},{"name":"Stevensvennen","code":"BESVN","country":"BE","lat":51.216667,"lon":5.233333},{"name":"Stokrooie","code":"BESKR","country":"BE","lat":50.966667,"lon":5.266667},{"name":"Tamines","code":"BETMS","country":"BE","lat":50.433333,"lon":4.6},{"name":"Temse","code":"BETSE","country":"BE","lat":51.133333,"lon":4.216667},{"name":"Teralfene","code":"BETFN","country":"BE","lat":50.9,"lon":4.1},{"name":"Terdonk","code":"BETDK","country":"BE","lat":51.15,"lon":3.783333},{"name":"Tergnee","code":"BETGE","country":"BE","lat":50.433333,"lon":4.55},{"name":"Terhagen","code":"BETGN","country":"BE","lat":51.083333,"lon":4.4},{"name":"Ternat","code":"BETER","country":"BE","lat":50.866667,"lon":4.183333},{"name":"Tertre","code":"BETET","country":"BE","lat":50.466667,"lon":3.8},{"name":"Tessenderlo","code":"BETES","country":"BE","lat":51.066667,"lon":5.083333},{"name":"Thieu","code":"BETHE","country":"BE","lat":50.466667,"lon":4.083333},{"name":"Thorntonbank","code":"BETOB","country":"BE","lat":51.633333,"lon":2.916667},{"name":"Thuin","code":"BETHU","country":"BE","lat":50.333333,"lon":4.283333},{"name":"Tielrode","code":"BETIL","country":"BE","lat":51.116667,"lon":4.183333},{"name":"Tihange","code":"BETHG","country":"BE","lat":50.533333,"lon":5.266667},{"name":"Tildonk","code":"BETLK","country":"BE","lat":50.95,"lon":4.633333},{"name":"Tilleur","code":"BETLR","country":"BE","lat":50.616667,"lon":5.533333},{"name":"Tisselt","code":"BETIS","country":"BE","lat":51.033333,"lon":4.366667},{"name":"Tongerlo","code":"BETGL","country":"BE","lat":51.133333,"lon":5.666667},{"name":"Tourinnes-St-Lambert","code":"BETSL","country":"BE","lat":50.633333,"lon":4.716667},{"name":"Tournebride","code":"BETBE","country":"BE","lat":50.9,"lon":5.683333},{"name":"Turnhout","code":"BETUR","country":"BE","lat":51.316667,"lon":4.95},{"name":"Uitbergen","code":"BEUIT","country":"BE","lat":51.016667,"lon":3.95},{"name":"Val Saint-Lambert","code":"BEVSB","country":"BE","lat":50.583333,"lon":5.483333},{"name":"Vaulx","code":"BEVLX","country":"BE","lat":50.066667,"lon":4.366667},{"name":"Veldwezelt","code":"BEVWZ","country":"BE","lat":50.866667,"lon":5.633333},{"name":"Verbrande Brug","code":"BEVBG","country":"BE","lat":50.95,"lon":4.416667},{"name":"Veurne","code":"BEVEU","country":"BE","lat":51.066667,"lon":2.666667},{"name":"Vezin","code":"BEVZI","country":"BE","lat":50.5,"lon":5.016667},{"name":"Viersel","code":"BEVSL","country":"BE","lat":51.183333,"lon":4.633333},{"name":"Viesville","code":"BEVVI","country":"BE","lat":50.483333,"lon":4.4},{"name":"Ville-sur-Haine","code":"BEVSH","country":"BE","lat":50.466667,"lon":4.05},{"name":"Vilvoorde","code":"BEVIL","country":"BE","lat":50.933333,"lon":4.433333},{"name":"Virginal-Samme","code":"BEVGL","country":"BE","lat":50.633333,"lon":4.183333},{"name":"Vroenhoven","code":"BEVHN","country":"BE","lat":50.816667,"lon":5.633333},{"name":"Waardamme","code":"BEWDM","country":"BE","lat":51.116667,"lon":3.216667},{"name":"Waasmunster","code":"BEWAA","country":"BE","lat":51.1,"lon":4.083333},{"name":"Walem","code":"BEWLM","country":"BE","lat":51.066667,"lon":4.466667},{"name":"Wandre","code":"BEWND","country":"BE","lat":50.666667,"lon":5.65},{"name":"Wanze","code":"BEWAN","country":"BE","lat":50.533333,"lon":5.216667},{"name":"Warcoing","code":"BEWCG","country":"BE","lat":50.7,"lon":3.333333},{"name":"Waregem","code":"BEWAR","country":"BE","lat":50.883333,"lon":3.416667},{"name":"Warneton","code":"BEBWN","country":"BE","lat":50.75,"lon":2.95},{"name":"Waulsort","code":"BEWLT","country":"BE","lat":50.216667,"lon":4.866667},{"name":"Wellen","code":"BEWEL","country":"BE","lat":50.85,"lon":5.316667},{"name":"Wepion","code":"BEWIP","country":"BE","lat":50.416667,"lon":4.866667},{"name":"Wervik","code":"BEWER","country":"BE","lat":50.783333,"lon":3.033333},{"name":"Wetteren","code":"BEWET","country":"BE","lat":51.0,"lon":3.883333},{"name":"Wevelgem","code":"BEWEV","country":"BE","lat":50.8,"lon":3.166667},{"name":"Wichelen","code":"BEWIH","country":"BE","lat":51.0,"lon":3.983333},{"name":"Wiers","code":"BEWIR","country":"BE","lat":50.5,"lon":3.533333},{"name":"Wijgmaal","code":"BEWGL","country":"BE","lat":50.933333,"lon":4.7},{"name":"Wijnegem","code":"BEWJG","country":"BE","lat":51.233333,"lon":4.533333},{"name":"Willebroek","code":"BEWLB","country":"BE","lat":51.066667,"lon":4.366667},{"name":"Wingene","code":"BEWEE","country":"BE","lat":51.066667,"lon":3.266667},{"name":"Wintham","code":"BEWTH","country":"BE","lat":51.1,"lon":4.3},{"name":"Wondelgem","code":"BEWDG","country":"BE","lat":51.083333,"lon":3.716667},{"name":"Wulpen","code":"BEWLP","country":"BE","lat":51.1,"lon":2.7},{"name":"Yvoir","code":"BEYVO","country":"BE","lat":50.333333,"lon":4.883333},{"name":"Zandbergen","code":"BEZBR","country":"BE","lat":50.8,"lon":3.966667},{"name":"Zandvliet","code":"BEZVT","country":"BE","lat":51.366667,"lon":4.3},{"name":"Zandvoorde","code":"BEZVD","country":"BE","lat":51.2,"lon":2.966667},{"name":"Zeebrugge","code":"BEZEE","country":"BE","lat":51.333333,"lon":3.2},{"name":"Zele","code":"BEZLE","country":"BE","lat":51.066667,"lon":4.033333},{"name":"Zelzate","code":"BEZEL","country":"BE","lat":51.2,"lon":3.816667},{"name":"Zemst","code":"BEZET","country":"BE","lat":50.983333,"lon":4.466667},{"name":"Zingem","code":"BEZGM","country":"BE","lat":50.9,"lon":3.65},{"name":"Zolder","code":"BEZOD","country":"BE","lat":51.016667,"lon":5.3},{"name":"Zomergem","code":"BEZRM","country":"BE","lat":51.116667,"lon":3.55},{"name":"Zuen (Zuun)","code":"BEZUN","country":"BE","lat":50.783333,"lon":4.266667},{"name":"Zulte","code":"BEZUL","country":"BE","lat":50.916667,"lon":3.433333},{"name":"Zutendaal","code":"BEZTL","country":"BE","lat":50.933333,"lon":5.566667},{"name":"Zwevegem","code":"BEZWE","country":"BE","lat":50.8,"lon":3.333333},{"name":"Zwijnaarde","code":"BEZWN","country":"BE","lat":51.0,"lon":3.716667},{"name":"Zwijndrecht","code":"BEZWL","country":"BE","lat":51.216667,"lon":4.333333},{"name":"Ziniare","code":"BFOB2","country":"BF","lat":12.583333,"lon":-1.3},{"name":"Akhtopol","code":"BGAKH","country":"BG","lat":42.1,"lon":27.95},{"name":"Balchik","code":"BGBAL","country":"BG","lat":43.416667,"lon":28.166667},{"name":"Byala Cherkva","code":"BGVT4","country":"BG","lat":43.2,"lon":25.3},{"name":"Byala Slatina","code":"BGBSL","country":"BG","lat":43.466667,"lon":23.95},{"name":"Gurkovo","code":"BGGUR","country":"BG","lat":42.65,"lon":25.783333},{"name":"Ignatievo","code":"BG4IG","country":"BG","lat":43.25,"lon":27.766667},{"name":"Kuklen","code":"BGKUK","country":"BG","lat":42.033333,"lon":24.783333},{"name":"Marchevo","code":"BGMAB","country":"BG","lat":41.6,"lon":23.8},{"name":"Nessebar","code":"BGNES","country":"BG","lat":42.65,"lon":27.733333},{"name":"Nikopol","code":"BGNPO","country":"BG","lat":43.683333,"lon":24.883333},{"name":"Oryakhovo","code":"BGOKH","country":"BG","lat":43.733333,"lon":23.95},{"name":"Ruse","code":"BGRDU","country":"BG","lat":43.85,"lon":25.966667},{"name":"Sozopol","code":"BGSOZ","country":"BG","lat":42.416667,"lon":27.7},{"name":"Straldzha","code":"BGS3W","country":"BG","lat":42.6,"lon":26.683333},{"name":"Al Hidd","code":"BHAHD","country":"BH","lat":26.233333,"lon":50.65},{"name":"Al Muharraq","code":"BHGBQ","country":"BH","lat":26.25,"lon":50.6},{"name":"Khalifa Bin Salman Port","code":"BHKBS","country":"BH","lat":26.2,"lon":50.616667},{"name":"Mina Sulman Port","code":"BHMIN","country":"BH","lat":26.2,"lon":50.616667},{"name":"Sitrah","code":"BHSIT","country":"BH","lat":26.133333,"lon":50.616667},{"name":"Cibitoke","code":"BICBK","country":"BI","lat":-3.333333,"lon":29.366667},{"name":"Porto-Novo","code":"BJPTN","country":"BJ","lat":6.483333,"lon":2.616667},{"name":"Saint-Barthelemy","code":"BLSBH","country":"BL","lat":17.9,"lon":-62.85},{"name":"Devonshire","code":"BMSEV","country":"BM","lat":32.3,"lon":-64.75},{"name":"Harbour Island","code":"BMHBI","country":"BM","lat":25.5,"lon":-76.633333},{"name":"Saint George","code":"BMSGE","country":"BM","lat":32.383333,"lon":-64.683333},{"name":"Sandys","code":"BMSAN","country":"BM","lat":32.3,"lon":-64.866667},{"name":"Southampton","code":"BMSOU","country":"BM","lat":32.25,"lon":-64.85},{"name":"Bandar Seri Begawan","code":"BNBWN","country":"BN","lat":4.883333,"lon":114.933333},{"name":"Copacabana","code":"BOCPB","country":"BO","lat":-16.15,"lon":-69.083333},{"name":"Guaqui","code":"BOGUQ","country":"BO","lat":-16.583333,"lon":-68.866667},{"name":"Huatajata","code":"BOHTJ","country":"BO","lat":-16.166667,"lon":-68.733333},{"name":"Puerto Busch","code":"BOPBU","country":"BO","lat":-20.033333,"lon":-57.966667},{"name":"Puerto Carabuco","code":"BOPTC","country":"BO","lat":-15.75,"lon":-69.066667},{"name":"Puerto Perez","code":"BOPPR","country":"BO","lat":-16.266667,"lon":-68.633333},{"name":"Puerto Quijarro","code":"BOQJR","country":"BO","lat":-17.783333,"lon":-57.766667},{"name":"Puerto Rico","code":"BOPUR","country":"BO","lat":-11.083333,"lon":-67.633333},{"name":"Puerto Suarez","code":"BOPSZ","country":"BO","lat":-18.95,"lon":-57.8},{"name":"Riberalta","code":"BORIB","country":"BO","lat":-10.983333,"lon":-66.1},{"name":"Rurrenabaque","code":"BORBQ","country":"BO","lat":-14.466667,"lon":-67.566667},{"name":"Trinidad","code":"BOTDD","country":"BO","lat":-14.833333,"lon":-64.9},{"name":"Bonaire","code":"BQBON","country":"BQ","lat":12.116667,"lon":-68.266667},{"name":"Dorp Rincon","code":"BQRIN","country":"BQ","lat":12.233333,"lon":-68.333333},{"name":"Goto","code":"BQGOT","country":"BQ","lat":12.216667,"lon":-68.383333},{"name":"Kralendijk","code":"BQKRA","country":"BQ","lat":12.15,"lon":-68.266667},{"name":"Saba","code":"BQSAB","country":"BQ","lat":17.633333,"lon":-63.233333},{"name":"Sint Eustatius","code":"BQEUX","country":"BQ","lat":17.483333,"lon":-62.966667},{"name":"Acara","code":"BRAAR","country":"BR","lat":-1.95,"lon":-48.2},{"name":"Acu Pt / Sao Joao da Barra","code":"BRACX","country":"BR","lat":-21.816667,"lon":-41.016667},{"name":"Afua","code":"BRAFU","country":"BR","lat":-0.15,"lon":-50.383333},{"name":"Alcantara","code":"BRACT","country":"BR","lat":-2.4,"lon":-44.416667},{"name":"Alenquer","code":"BRALT","country":"BR","lat":-1.95,"lon":-54.733333},{"name":"Almeirim","code":"BRAMM","country":"BR","lat":-1.516667,"lon":-52.566667},{"name":"Altamira","code":"BRATM","country":"BR","lat":-3.2,"lon":-52.2},{"name":"Ananindeua","code":"BRANA","country":"BR","lat":-1.366667,"lon":-48.366667},{"name":"Angra dos Reis","code":"BRADR","country":"BR","lat":-23.0,"lon":-44.316667},{"name":"Anhembi","code":"BRANH","country":"BR","lat":-22.783333,"lon":-48.116667},{"name":"Antonina","code":"BRANT","country":"BR","lat":-25.416667,"lon":-48.7},{"name":"Aracaju","code":"BRAJU","country":"BR","lat":-10.9,"lon":-37.033333},{"name":"Aracatuba","code":"BRARU","country":"BR","lat":-21.2,"lon":-50.433333},{"name":"Araguacema","code":"BRRGC","country":"BR","lat":-8.8,"lon":-49.55},{"name":"Araguatins","code":"BRANS","country":"BR","lat":-5.65,"lon":-48.116667},{"name":"Aratu Pt / Candeias","code":"BRARB","country":"BR","lat":-12.783333,"lon":-38.5},{"name":"Areia Branca","code":"BRARE","country":"BR","lat":-4.95,"lon":-37.116667},{"name":"Armacao dos Buzios","code":"BRABZ","country":"BR","lat":-22.75,"lon":-41.883333},{"name":"Aruana","code":"BRAUN","country":"BR","lat":-14.9,"lon":-51.066667},{"name":"Autazes","code":"BRAUS","country":"BR","lat":-3.566667,"lon":-59.133333},{"name":"Bacabeira","code":"BRBCE","country":"BR","lat":-2.983333,"lon":-44.3},{"name":"Balneario Camboriu","code":"BRBAC","country":"BR","lat":-26.983333,"lon":-48.633333},{"name":"Balsas","code":"BRBSS","country":"BR","lat":-7.516667,"lon":-46.033333},{"name":"Barcelos","code":"BRBAZ","country":"BR","lat":-0.966667,"lon":-62.916667},{"name":"Bariri","code":"BRBIR","country":"BR","lat":-22.066667,"lon":-48.733333},{"name":"Barra","code":"BRBQQ","country":"BR","lat":-11.083333,"lon":-43.133333},{"name":"Barra do Riacho Pt / Aracruz","code":"BRRCH","country":"BR","lat":-19.85,"lon":-40.033333},{"name":"Barra dos Coqueiros","code":"BRBAR","country":"BR","lat":-10.9,"lon":-37.033333},{"name":"Barreirinha","code":"BRBEA","country":"BR","lat":-2.783333,"lon":-57.066667},{"name":"Belem","code":"BRBEL","country":"BR","lat":-1.45,"lon":-48.483333},{"name":"Belmonte","code":"BRBLE","country":"BR","lat":-15.85,"lon":-38.866667},{"name":"Benevides","code":"BRBVI","country":"BR","lat":-1.35,"lon":-48.233333},{"name":"Benjamin Constant","code":"BRBCT","country":"BR","lat":-4.366667,"lon":-70.016667},{"name":"Beruri","code":"BRBEI","country":"BR","lat":-3.883333,"lon":-61.366667},{"name":"Boa Vista do Ramos","code":"BRBVR","country":"BR","lat":-2.966667,"lon":-57.583333},{"name":"Borba","code":"BRBOB","country":"BR","lat":-4.383333,"lon":-59.583333},{"name":"Breves","code":"BRBVS","country":"BR","lat":-1.683333,"lon":-50.466667},{"name":"Cabedelo Pt / Joao Pessoa","code":"BRCDO","country":"BR","lat":-6.966667,"lon":-34.833333},{"name":"Cabo Frio","code":"BRCFO","country":"BR","lat":-22.866667,"lon":-42.016667},{"name":"Caceres","code":"BRCCX","country":"BR","lat":-16.066667,"lon":-57.666667},{"name":"Cachoeira do Arari","code":"BRCHI","country":"BR","lat":-1.0,"lon":-48.95},{"name":"Cachoeira do Piria","code":"BRCPR","country":"BR","lat":-1.75,"lon":-46.533333},{"name":"Cachoeira do Sul","code":"BRCSL","country":"BR","lat":-30.033333,"lon":-52.883333},{"name":"Cameta","code":"BRCMA","country":"BR","lat":-2.233333,"lon":-49.483333},{"name":"Campos dos Goytacazes","code":"BRCGZ","country":"BR","lat":-21.75,"lon":-41.316667},{"name":"Canoas","code":"BRCAN","country":"BR","lat":-29.916667,"lon":-51.166667},{"name":"Canutama","code":"BRCTM","country":"BR","lat":-6.516667,"lon":-64.383333},{"name":"Caracarai","code":"BRCCY","country":"BR","lat":1.8,"lon":-61.133333},{"name":"Carauari","code":"BRCRY","country":"BR","lat":-4.866667,"lon":-66.883333},{"name":"Caravelas","code":"BRCRL","country":"BR","lat":-17.733333,"lon":-39.25},{"name":"Careiro da Varzea","code":"BRCVZ","country":"BR","lat":-3.183333,"lon":-59.816667},{"name":"Carolina","code":"BRCLN","country":"BR","lat":-7.316667,"lon":-47.466667},{"name":"Charqueadas","code":"BRCQD","country":"BR","lat":-29.95,"lon":-51.616667},{"name":"Chaves","code":"BRCHE","country":"BR","lat":-0.15,"lon":-49.983333},{"name":"Coari","code":"BRCAR","country":"BR","lat":-4.083333,"lon":-63.133333},{"name":"Codajas","code":"BRCDA","country":"BR","lat":-3.833333,"lon":-62.05},{"name":"Conceicao do Araguaia","code":"BRCGA","country":"BR","lat":-8.25,"lon":-49.25},{"name":"Conchas","code":"BRCCS","country":"BR","lat":-23.0,"lon":-48.0},{"name":"Corumba","code":"BRCMG","country":"BR","lat":-19.0,"lon":-57.633333},{"name":"Cruzeiro do Sul","code":"BRCZS","country":"BR","lat":-7.616667,"lon":-72.666667},{"name":"Cubatao","code":"BRCUO","country":"BR","lat":-23.883333,"lon":-46.416667},{"name":"Duque de Caxias","code":"BRDCS","country":"BR","lat":-22.783333,"lon":-43.3},{"name":"Eirunepe","code":"BRERN","country":"BR","lat":-6.666667,"lon":-69.85},{"name":"Estrela","code":"BRETA","country":"BR","lat":-29.5,"lon":-51.966667},{"name":"Fernando de Noronha","code":"BRFEN","country":"BR","lat":-3.85,"lon":-32.433333},{"name":"Fonte Boa","code":"BRFBA","country":"BR","lat":-2.5,"lon":-66.083333},{"name":"Forno Pt / Arraial do Cabo","code":"BRFNO","country":"BR","lat":-22.966667,"lon":-42.016667},{"name":"Fortaleza","code":"BRFOR","country":"BR","lat":-3.716667,"lon":-38.583333},{"name":"Foz do Iguacu","code":"BRIGU","country":"BR","lat":-25.533333,"lon":-54.583333},{"name":"Galinhos","code":"BRGNS","country":"BR","lat":-5.083333,"lon":-36.266667},{"name":"Guaiba","code":"BRGIB","country":"BR","lat":-30.1,"lon":-51.3},{"name":"Guaira","code":"BRGIA","country":"BR","lat":-24.083333,"lon":-54.233333},{"name":"Guajara","code":"BRGJR","country":"BR","lat":-7.533333,"lon":-72.566667},{"name":"Guajara-Mirim","code":"BRGJM","country":"BR","lat":-10.766667,"lon":-65.316667},{"name":"Guamare","code":"BRGUA","country":"BR","lat":-5.1,"lon":-36.316667},{"name":"Guaruja","code":"BRGUJ","country":"BR","lat":-23.983333,"lon":-46.233333},{"name":"Gurupa","code":"BRGRP","country":"BR","lat":-1.4,"lon":-51.633333},{"name":"Humaita","code":"BRHMA","country":"BR","lat":-7.5,"lon":-63.016667},{"name":"Ibotirama","code":"BRIBT","country":"BR","lat":-12.183333,"lon":-43.216667},{"name":"Ilha Solteira","code":"BRISA","country":"BR","lat":-20.416667,"lon":-51.333333},{"name":"Ilhabela","code":"BRIBE","country":"BR","lat":-23.783333,"lon":-45.35},{"name":"Ilheus","code":"BRIOS","country":"BR","lat":-14.783333,"lon":-39.033333},{"name":"Imbituba","code":"BRIBB","country":"BR","lat":-28.233333,"lon":-48.666667},{"name":"Imperatriz","code":"BRIMP","country":"BR","lat":-5.516667,"lon":-47.466667},{"name":"Ipixuna","code":"BRIXA","country":"BR","lat":-7.05,"lon":-71.683333},{"name":"Iranduba","code":"BRIRB","country":"BR","lat":-3.266667,"lon":-60.183333},{"name":"Itacoatiara","code":"BRIAR","country":"BR","lat":-3.133333,"lon":-58.433333},{"name":"Itaguai Pt = Sepetiba Pt","code":"BRSPB","country":"BR","lat":-22.866667,"lon":-43.766667},{"name":"Itaituba","code":"BRITB","country":"BR","lat":-4.25,"lon":-55.983333},{"name":"Itajai","code":"BRITJ","country":"BR","lat":-26.9,"lon":-48.65},{"name":"Itamarati","code":"BRYTR","country":"BR","lat":-6.433333,"lon":-68.233333},{"name":"Itapemirim","code":"BRIIM","country":"BR","lat":-21.0,"lon":-40.833333},{"name":"Itapiranga","code":"BRIPG","country":"BR","lat":-2.733333,"lon":-58.033333},{"name":"Itapoa","code":"BRIOA","country":"BR","lat":-26.0,"lon":-48.6},{"name":"Itaqui","code":"BRITQ","country":"BR","lat":-29.116667,"lon":-56.55},{"name":"Itaqui Pt / Sao Luis","code":"BRIQI","country":"BR","lat":-2.566667,"lon":-44.366667},{"name":"Jaguarao","code":"BRJAG","country":"BR","lat":-32.55,"lon":-53.366667},{"name":"Jau","code":"BRJAU","country":"BR","lat":-22.283333,"lon":-48.55},{"name":"Juazeiro","code":"BRJZO","country":"BR","lat":-9.4,"lon":-40.5},{"name":"Juruti","code":"BRJUR","country":"BR","lat":-2.15,"lon":-56.083333},{"name":"Ladario","code":"BRLDR","country":"BR","lat":-19.0,"lon":-57.6},{"name":"Laranjal do Jari","code":"BRLJI","country":"BR","lat":-0.85,"lon":-52.533333},{"name":"Linhares","code":"BRLRS","country":"BR","lat":-19.383333,"lon":-40.05},{"name":"Macae","code":"BRMEA","country":"BR","lat":-22.366667,"lon":-41.766667},{"name":"Macau","code":"BRMCU","country":"BR","lat":-5.1,"lon":-36.633333},{"name":"Maceio","code":"BRMCZ","country":"BR","lat":-9.65,"lon":-35.7},{"name":"Madre de Deus","code":"BRMDD","country":"BR","lat":-12.733333,"lon":-38.6},{"name":"Manacapuru","code":"BRMPR","country":"BR","lat":-3.283333,"lon":-60.616667},{"name":"Manaquiri","code":"BRMQR","country":"BR","lat":-3.416667,"lon":-60.45},{"name":"Manaus","code":"BRMAO","country":"BR","lat":-3.133333,"lon":-60.016667},{"name":"Mangaratiba","code":"BRMGT","country":"BR","lat":-22.95,"lon":-44.033333},{"name":"Manicore","code":"BRMNX","country":"BR","lat":-5.8,"lon":-61.283333},{"name":"Maraba","code":"BRMAB","country":"BR","lat":-5.35,"lon":-49.133333},{"name":"Maragogipe","code":"BRMAR","country":"BR","lat":-12.766667,"lon":-38.916667},{"name":"Marica","code":"BRMRC","country":"BR","lat":-22.916667,"lon":-42.816667},{"name":"Maues","code":"BRMAS","country":"BR","lat":-3.383333,"lon":-57.7},{"name":"Moju","code":"BRMOU","country":"BR","lat":-1.883333,"lon":-48.766667},{"name":"Monte Alegre","code":"BRMTE","country":"BR","lat":-2.0,"lon":-54.066667},{"name":"Mossoro","code":"BRMOS","country":"BR","lat":-5.183333,"lon":-37.35},{"name":"Mundo Novo","code":"BRMNV","country":"BR","lat":-23.933333,"lon":-54.266667},{"name":"Natal","code":"BRNAT","country":"BR","lat":-5.75,"lon":-35.25},{"name":"Navegantes","code":"BRNVT","country":"BR","lat":-26.883333,"lon":-48.633333},{"name":"Nhamunda","code":"BRNAA","country":"BR","lat":-2.183333,"lon":-56.716667},{"name":"Niteroi","code":"BRNTR","country":"BR","lat":-22.883333,"lon":-43.066667},{"name":"Nova Olinda do Norte","code":"BRNON","country":"BR","lat":-3.883333,"lon":-59.083333},{"name":"Novo Airao","code":"BRNAO","country":"BR","lat":-2.616667,"lon":-60.933333},{"name":"Novo Aripuana","code":"BRNVP","country":"BR","lat":-5.116667,"lon":-60.366667},{"name":"Obidos","code":"BROBI","country":"BR","lat":-1.9,"lon":-55.5},{"name":"Oriximina","code":"BRORX","country":"BR","lat":-1.75,"lon":-55.85},{"name":"Panorama","code":"BRPNX","country":"BR","lat":-21.35,"lon":-51.85},{"name":"Paracuru","code":"BRPRU","country":"BR","lat":-3.4,"lon":-39.016667},{"name":"Paranagua","code":"BRPNG","country":"BR","lat":-25.5,"lon":-48.516667},{"name":"Parintins","code":"BRPIN","country":"BR","lat":-2.616667,"lon":-56.733333},{"name":"Pato Bragado","code":"BRPBD","country":"BR","lat":-24.616667,"lon":-54.216667},{"name":"Pecem Pt / Sao Goncalo do Amarante","code":"BRPEC","country":"BR","lat":-3.516667,"lon":-38.866667},{"name":"Pederneiras","code":"BRPNS","country":"BR","lat":-22.35,"lon":-48.766667},{"name":"Pelotas","code":"BRPET","country":"BR","lat":-31.716667,"lon":-52.333333},{"name":"Petrolina","code":"BRPNZ","country":"BR","lat":-9.383333,"lon":-40.483333},{"name":"Pirapora","code":"BRPIP","country":"BR","lat":-17.333333,"lon":-44.95},{"name":"Ponta da Madeira Pt / Sao Luis","code":"BRPMA","country":"BR","lat":-2.533333,"lon":-44.35},{"name":"Ponta do Ubu Pt / Anchieta","code":"BRPOU","country":"BR","lat":-20.766667,"lon":-40.566667},{"name":"Pontal do Parana","code":"BRPPN","country":"BR","lat":-25.583333,"lon":-48.433333},{"name":"Portel","code":"BRPOL","country":"BR","lat":-1.933333,"lon":-50.816667},{"name":"Porto Acre","code":"BRPWA","country":"BR","lat":-9.6,"lon":-67.533333},{"name":"Porto Alegre","code":"BRPOA","country":"BR","lat":-30.016667,"lon":-51.216667},{"name":"Porto Belo","code":"BRPBO","country":"BR","lat":-27.133333,"lon":-48.6},{"name":"Porto de Moz","code":"BRPDM","country":"BR","lat":-1.733333,"lon":-52.233333},{"name":"Porto Murtinho","code":"BRPMH","country":"BR","lat":-21.7,"lon":-57.883333},{"name":"Porto Trombetas / Oriximina","code":"BRTMT","country":"BR","lat":-1.466667,"lon":-56.383333},{"name":"Porto Velho","code":"BRPVH","country":"BR","lat":-8.766667,"lon":-63.816667},{"name":"Porto Walter","code":"BRPWR","country":"BR","lat":-8.25,"lon":-72.733333},{"name":"Praia Mole Pt / Vitoria","code":"BRPRM","country":"BR","lat":-20.3,"lon":-40.216667},{"name":"Praia Norte","code":"BRNOR","country":"BR","lat":-5.383333,"lon":-47.8},{"name":"Prainha","code":"BRPRH","country":"BR","lat":-1.8,"lon":-53.466667},{"name":"Presidente Epitacio","code":"BRPEO","country":"BR","lat":-21.766667,"lon":-52.1},{"name":"Presidente Kennedy","code":"BRPKY","country":"BR","lat":-21.1,"lon":-41.05},{"name":"Recife","code":"BRREC","country":"BR","lat":-8.05,"lon":-34.883333},{"name":"Rio Branco","code":"BRRBR","country":"BR","lat":-9.966667,"lon":-67.8},{"name":"Rio de Janeiro","code":"BRRIO","country":"BR","lat":-22.866667,"lon":-43.216667},{"name":"Rio Grande","code":"BRRIG","country":"BR","lat":-32.05,"lon":-52.083333},{"name":"Rio Pardo","code":"BRRPO","country":"BR","lat":-29.983333,"lon":-52.366667},{"name":"Salvador","code":"BRSSA","country":"BR","lat":-13.0,"lon":-38.483333},{"name":"Salvaterra","code":"BRSLV","country":"BR","lat":-0.75,"lon":-48.5},{"name":"Santa Helena","code":"BRSNH","country":"BR","lat":-24.85,"lon":-54.333333},